{
  "type": "FeatureCollection",
  "title": "7-11",
  "features": [
    {
      "type": "Feature",
      "properties": {
        "id": "110035",
        "title": "一勝",
        "address": "台中市大肚區福山村沙田路一段432-1號",
        "marker-color": "#01ac50"
      },
      "geometry": {
        "coordinates": [
          120.565193,
          24.123212
        ],
        "type": "Point"
      },
      "id": "110035"
    },
    {
      "type": "Feature",
      "properties": {
        "id": "110068",
        "title": "鳳文",
        "address": "高雄市鳳山區文英里文衡路50號1樓",
        "marker-color": "#01ac50"
      },
      "geometry": {
        "coordinates": [
          120.358217,
          22.633397
        ],
        "type": "Point"
      },
      "id": "110068"
    },
    {
      "type": "Feature",
      "properties": {
        "id": "110079",
        "title": "竹秀",
        "address": "南投縣竹山鎮集山路二段58號",
        "marker-color": "#01ac50"
      },
      "geometry": {
        "coordinates": [
          120.713572,
          23.800302
        ],
        "type": "Point"
      },
      "id": "110079"
    },
    {
      "type": "Feature",
      "properties": {
        "id": "110080",
        "title": "千禧",
        "address": "桃園市龜山區光峰路千禧新城15號1樓",
        "marker-color": "#01ac50"
      },
      "geometry": {
        "coordinates": [
          121.340911,
          24.999027
        ],
        "type": "Point"
      },
      "id": "110080"
    },
    {
      "type": "Feature",
      "properties": {
        "id": "110105",
        "title": "篤明",
        "address": "新竹市東區林森路184號",
        "marker-color": "#01ac50"
      },
      "geometry": {
        "coordinates": [
          120.964089,
          24.799246
        ],
        "type": "Point"
      },
      "id": "110105"
    },
    {
      "type": "Feature",
      "properties": {
        "id": "110138",
        "title": "百吉",
        "address": "桃園市大溪區復興路二段35號",
        "marker-color": "#01ac50"
      },
      "geometry": {
        "coordinates": [
          121.306397,
          24.829792
        ],
        "type": "Point"
      },
      "id": "110138"
    },
    {
      "type": "Feature",
      "properties": {
        "id": "110161",
        "title": "東佳",
        "address": "台東縣台東市長沙街178號180號182號",
        "marker-color": "#01ac50"
      },
      "geometry": {
        "coordinates": [
          121.141708081454,
          22.7509169273998
        ],
        "type": "Point"
      },
      "id": "110161"
    },
    {
      "type": "Feature",
      "properties": {
        "id": "110172",
        "title": "樂東",
        "address": "台中市東區東英路331號",
        "marker-color": "#01ac50"
      },
      "geometry": {
        "coordinates": [
          120.704994813233,
          24.1374637640522
        ],
        "type": "Point"
      },
      "id": "110172"
    },
    {
      "type": "Feature",
      "properties": {
        "id": "110208",
        "title": "集寶",
        "address": "南投縣集集鎮八張街75號",
        "marker-color": "#01ac50"
      },
      "geometry": {
        "coordinates": [
          120.792493,
          23.828049
        ],
        "type": "Point"
      },
      "id": "110208"
    },
    {
      "type": "Feature",
      "properties": {
        "id": "110219",
        "title": "國寶",
        "address": "南投縣草屯鎮中正路557之26號",
        "marker-color": "#01ac50"
      },
      "geometry": {
        "coordinates": [
          120.696959804718,
          23.978752209505497
        ],
        "type": "Point"
      },
      "id": "110219"
    },
    {
      "type": "Feature",
      "properties": {
        "id": "110242",
        "title": "敦維",
        "address": "台北市大安區東豐街43號45號1樓",
        "marker-color": "#01ac50"
      },
      "geometry": {
        "coordinates": [
          121.546674389051,
          25.0362378981803
        ],
        "type": "Point"
      },
      "id": "110242"
    },
    {
      "type": "Feature",
      "properties": {
        "id": "110253",
        "title": "僑德",
        "address": "屏東縣枋寮鄉安樂村中山路143號145號147號1樓",
        "marker-color": "#01ac50"
      },
      "geometry": {
        "coordinates": [
          120.596807775336,
          22.364345577880503
        ],
        "type": "Point"
      },
      "id": "110253"
    },
    {
      "type": "Feature",
      "properties": {
        "id": "110275",
        "title": "家的",
        "address": "屏東縣恆春鎮城南里中正路67號1樓",
        "marker-color": "#01ac50"
      },
      "geometry": {
        "coordinates": [
          120.744647863016,
          22.0029543194402
        ],
        "type": "Point"
      },
      "id": "110275"
    },
    {
      "type": "Feature",
      "properties": {
        "id": "110286",
        "title": "鴻成",
        "address": "新北市土城區學府路一段28號1樓",
        "marker-color": "#01ac50"
      },
      "geometry": {
        "coordinates": [
          121.458347,
          24.988597
        ],
        "type": "Point"
      },
      "id": "110286"
    },
    {
      "type": "Feature",
      "properties": {
        "id": "110297",
        "title": "油車",
        "address": "雲林縣二崙鄉油車村文化路9號1樓",
        "marker-color": "#01ac50"
      },
      "geometry": {
        "coordinates": [
          120.389714,
          23.795051
        ],
        "type": "Point"
      },
      "id": "110297"
    },
    {
      "type": "Feature",
      "properties": {
        "id": "110301",
        "title": "耀心",
        "address": "新北市板橋區中山路一段50巷22-2-15-39-46號",
        "marker-color": "#01ac50"
      },
      "geometry": {
        "coordinates": [
          121.46148,
          25.008774
        ],
        "type": "Point"
      },
      "id": "110301"
    },
    {
      "type": "Feature",
      "properties": {
        "id": "110312",
        "title": "林田山",
        "address": "花蓮縣鳳林鎮長橋里長橋路108號1樓",
        "marker-color": "#01ac50"
      },
      "geometry": {
        "coordinates": [
          121.422167,
          23.714264
        ],
        "type": "Point"
      },
      "id": "110312"
    },
    {
      "type": "Feature",
      "properties": {
        "id": "110334",
        "title": "安信",
        "address": "台北市大安區信義路四段74號1樓",
        "marker-color": "#01ac50"
      },
      "geometry": {
        "coordinates": [
          121.54642,
          25.033132
        ],
        "type": "Point"
      },
      "id": "110334"
    },
    {
      "type": "Feature",
      "properties": {
        "id": "110356",
        "title": "埤頭",
        "address": "彰化縣埤頭鄉合興村彰水路三段5鄰537號",
        "marker-color": "#01ac50"
      },
      "geometry": {
        "coordinates": [
          120.459533,
          23.892665
        ],
        "type": "Point"
      },
      "id": "110356"
    },
    {
      "type": "Feature",
      "properties": {
        "id": "110367",
        "title": "儒林",
        "address": "彰化縣二林鎮北平里仁愛路11鄰425號",
        "marker-color": "#01ac50"
      },
      "geometry": {
        "coordinates": [
          120.369801,
          23.903578
        ],
        "type": "Point"
      },
      "id": "110367"
    },
    {
      "type": "Feature",
      "properties": {
        "id": "110390",
        "title": "福冠",
        "address": "桃園市中壢區福州一街242號1樓及2樓",
        "marker-color": "#01ac50"
      },
      "geometry": {
        "coordinates": [
          121.233153163595,
          24.967251660738
        ],
        "type": "Point"
      },
      "id": "110390"
    },
    {
      "type": "Feature",
      "properties": {
        "id": "110415",
        "title": "豐濱",
        "address": "花蓮縣豐濱鄉三民村三民路61號1樓",
        "marker-color": "#01ac50"
      },
      "geometry": {
        "coordinates": [
          121.522003,
          23.598173
        ],
        "type": "Point"
      },
      "id": "110415"
    },
    {
      "type": "Feature",
      "properties": {
        "id": "110426",
        "title": "資砡",
        "address": "嘉義市西區港坪里玉山路422號",
        "marker-color": "#01ac50"
      },
      "geometry": {
        "coordinates": [
          120.418522,
          23.47048
        ],
        "type": "Point"
      },
      "id": "110426"
    },
    {
      "type": "Feature",
      "properties": {
        "id": "110448",
        "title": "古亭",
        "address": "台北市中正區汀州路二段210號",
        "marker-color": "#01ac50"
      },
      "geometry": {
        "coordinates": [
          121.523660371927,
          25.0224888505301
        ],
        "type": "Point"
      },
      "id": "110448"
    },
    {
      "type": "Feature",
      "properties": {
        "id": "110459",
        "title": "員昌",
        "address": "彰化縣員林市黎明里12鄰南昌路70號72號1樓",
        "marker-color": "#01ac50"
      },
      "geometry": {
        "coordinates": [
          120.572455,
          23.954676
        ],
        "type": "Point"
      },
      "id": "110459"
    },
    {
      "type": "Feature",
      "properties": {
        "id": "110507",
        "title": "雙建",
        "address": "新北市新店區二十張路64號64之1號1樓",
        "marker-color": "#01ac50"
      },
      "geometry": {
        "coordinates": [
          121.536664,
          24.980183
        ],
        "type": "Point"
      },
      "id": "110507"
    },
    {
      "type": "Feature",
      "properties": {
        "id": "110530",
        "title": "廣大",
        "address": "屏東縣屏東市仁愛里廣東路561號1樓",
        "marker-color": "#01ac50"
      },
      "geometry": {
        "coordinates": [
          120.498103710899,
          22.6835896896801
        ],
        "type": "Point"
      },
      "id": "110530"
    },
    {
      "type": "Feature",
      "properties": {
        "id": "110552",
        "title": "蘆荻",
        "address": "新北市蘆洲區永康街1巷35號1樓",
        "marker-color": "#01ac50"
      },
      "geometry": {
        "coordinates": [
          121.460134,
          25.084863
        ],
        "type": "Point"
      },
      "id": "110552"
    },
    {
      "type": "Feature",
      "properties": {
        "id": "110600",
        "title": "冬念",
        "address": "雲林縣虎尾鎮埒內里林森路一段9鄰39號",
        "marker-color": "#01ac50"
      },
      "geometry": {
        "coordinates": [
          120.442983,
          23.719293
        ],
        "type": "Point"
      },
      "id": "110600"
    },
    {
      "type": "Feature",
      "properties": {
        "id": "110611",
        "title": "富來",
        "address": "雲林縣西螺鎮新豐里13鄰新社320-8號",
        "marker-color": "#01ac50"
      },
      "geometry": {
        "coordinates": [
          120.44615564652399,
          23.786403535372397
        ],
        "type": "Point"
      },
      "id": "110611"
    },
    {
      "type": "Feature",
      "properties": {
        "id": "110666",
        "title": "天文",
        "address": "苗栗縣竹南鎮天文路176號",
        "marker-color": "#01ac50"
      },
      "geometry": {
        "coordinates": [
          120.881959,
          24.686325
        ],
        "type": "Point"
      },
      "id": "110666"
    },
    {
      "type": "Feature",
      "properties": {
        "id": "110677",
        "title": "池上",
        "address": "台東縣池上鄉大埔村中山路64號1樓",
        "marker-color": "#01ac50"
      },
      "geometry": {
        "coordinates": [
          121.213317,
          23.120742
        ],
        "type": "Point"
      },
      "id": "110677"
    },
    {
      "type": "Feature",
      "properties": {
        "id": "110699",
        "title": "耕新",
        "address": "新竹縣湖口鄉成功路276號",
        "marker-color": "#01ac50"
      },
      "geometry": {
        "coordinates": [
          121.041082028613,
          24.9017724327881
        ],
        "type": "Point"
      },
      "id": "110699"
    },
    {
      "type": "Feature",
      "properties": {
        "id": "110736",
        "title": "東園",
        "address": "台中市烏日區溪南路一段375號",
        "marker-color": "#01ac50"
      },
      "geometry": {
        "coordinates": [
          120.643467,
          24.079255
        ],
        "type": "Point"
      },
      "id": "110736"
    },
    {
      "type": "Feature",
      "properties": {
        "id": "110758",
        "title": "頭屋",
        "address": "苗栗縣頭屋鄉尖豐路118號120號1樓",
        "marker-color": "#01ac50"
      },
      "geometry": {
        "coordinates": [
          120.851131399143,
          24.5747947908589
        ],
        "type": "Point"
      },
      "id": "110758"
    },
    {
      "type": "Feature",
      "properties": {
        "id": "110769",
        "title": "信賢",
        "address": "高雄市新興區南港里七賢一路432號1樓",
        "marker-color": "#01ac50"
      },
      "geometry": {
        "coordinates": [
          120.305386598401,
          22.6345795155701
        ],
        "type": "Point"
      },
      "id": "110769"
    },
    {
      "type": "Feature",
      "properties": {
        "id": "110817",
        "title": "千翔",
        "address": "台北市中正區許昌街17號1樓",
        "marker-color": "#01ac50"
      },
      "geometry": {
        "coordinates": [
          121.516971,
          25.045748
        ],
        "type": "Point"
      },
      "id": "110817"
    },
    {
      "type": "Feature",
      "properties": {
        "id": "110839",
        "title": "虎威",
        "address": "雲林縣虎尾鎮光復路122號1樓及成和街2號1樓",
        "marker-color": "#01ac50"
      },
      "geometry": {
        "coordinates": [
          120.446785649354,
          23.7095332671797
        ],
        "type": "Point"
      },
      "id": "110839"
    },
    {
      "type": "Feature",
      "properties": {
        "id": "110884",
        "title": "桂冠",
        "address": "台中市西屯區四川路120號1樓",
        "marker-color": "#01ac50"
      },
      "geometry": {
        "coordinates": [
          120.653192772614,
          24.1627688513248
        ],
        "type": "Point"
      },
      "id": "110884"
    },
    {
      "type": "Feature",
      "properties": {
        "id": "110895",
        "title": "公華",
        "address": "屏東縣屏東市龍華里龍華路152號156號1樓",
        "marker-color": "#01ac50"
      },
      "geometry": {
        "coordinates": [
          120.482686,
          22.635931
        ],
        "type": "Point"
      },
      "id": "110895"
    },
    {
      "type": "Feature",
      "properties": {
        "id": "110909",
        "title": "翁武",
        "address": "桃園市大溪區民權東路149號",
        "marker-color": "#01ac50"
      },
      "geometry": {
        "coordinates": [
          121.293046,
          24.881325
        ],
        "type": "Point"
      },
      "id": "110909"
    },
    {
      "type": "Feature",
      "properties": {
        "id": "110987",
        "title": "淡溝",
        "address": "台中市北區淡溝里民權路361號1樓",
        "marker-color": "#01ac50"
      },
      "geometry": {
        "coordinates": [
          120.67028278402,
          24.1567798305777
        ],
        "type": "Point"
      },
      "id": "110987"
    },
    {
      "type": "Feature",
      "properties": {
        "id": "110998",
        "title": "百豐",
        "address": "新北市新店區安康路一段168號1樓",
        "marker-color": "#01ac50"
      },
      "geometry": {
        "coordinates": [
          121.525999,
          24.963178
        ],
        "type": "Point"
      },
      "id": "110998"
    },
    {
      "type": "Feature",
      "properties": {
        "id": "111005",
        "title": "前山",
        "address": "南投縣竹山鎮集山路三段1089號",
        "marker-color": "#01ac50"
      },
      "geometry": {
        "coordinates": [
          120.679525,
          23.753908
        ],
        "type": "Point"
      },
      "id": "111005"
    },
    {
      "type": "Feature",
      "properties": {
        "id": "111027",
        "title": "瑞城",
        "address": "台中市大里區瑞城一街1號",
        "marker-color": "#01ac50"
      },
      "geometry": {
        "coordinates": [
          120.701951,
          24.085822
        ],
        "type": "Point"
      },
      "id": "111027"
    },
    {
      "type": "Feature",
      "properties": {
        "id": "111038",
        "title": "峽太",
        "address": "新北市三峽區大同路90號92號",
        "marker-color": "#01ac50"
      },
      "geometry": {
        "coordinates": [
          121.375575,
          24.927642
        ],
        "type": "Point"
      },
      "id": "111038"
    },
    {
      "type": "Feature",
      "properties": {
        "id": "111120",
        "title": "旭泰",
        "address": "新北市汐止區建成路57巷1號3號",
        "marker-color": "#01ac50"
      },
      "geometry": {
        "coordinates": [
          121.662267,
          25.072466
        ],
        "type": "Point"
      },
      "id": "111120"
    },
    {
      "type": "Feature",
      "properties": {
        "id": "111142",
        "title": "漢溪",
        "address": "台中市東區十甲東路575號1樓",
        "marker-color": "#01ac50"
      },
      "geometry": {
        "coordinates": [
          120.70798,
          24.140852
        ],
        "type": "Point"
      },
      "id": "111142"
    },
    {
      "type": "Feature",
      "properties": {
        "id": "111153",
        "title": "大埕",
        "address": "台南市七股區大珵里272號1樓",
        "marker-color": "#01ac50"
      },
      "geometry": {
        "coordinates": [
          120.142134,
          23.143338
        ],
        "type": "Point"
      },
      "id": "111153"
    },
    {
      "type": "Feature",
      "properties": {
        "id": "111175",
        "title": "大享",
        "address": "桃園市中壢區中正路1262號1樓",
        "marker-color": "#01ac50"
      },
      "geometry": {
        "coordinates": [
          121.201692,
          24.970767
        ],
        "type": "Point"
      },
      "id": "111175"
    },
    {
      "type": "Feature",
      "properties": {
        "id": "111201",
        "title": "徠一",
        "address": "宜蘭縣羅東鎮培英路98號100號",
        "marker-color": "#01ac50"
      },
      "geometry": {
        "coordinates": [
          121.759647,
          24.67833
        ],
        "type": "Point"
      },
      "id": "111201"
    },
    {
      "type": "Feature",
      "properties": {
        "id": "111212",
        "title": "軍福",
        "address": "台中市北屯區軍功路一段500號",
        "marker-color": "#01ac50"
      },
      "geometry": {
        "coordinates": [
          120.718802,
          24.17136
        ],
        "type": "Point"
      },
      "id": "111212"
    },
    {
      "type": "Feature",
      "properties": {
        "id": "111223",
        "title": "火車頭",
        "address": "彰化縣彰化市長樂里中正路一段536號538號",
        "marker-color": "#01ac50"
      },
      "geometry": {
        "coordinates": [
          120.54016769970299,
          24.0821255686338
        ],
        "type": "Point"
      },
      "id": "111223"
    },
    {
      "type": "Feature",
      "properties": {
        "id": "111234",
        "title": "龍欣",
        "address": "桃園市龍潭區中興路257號259號",
        "marker-color": "#01ac50"
      },
      "geometry": {
        "coordinates": [
          121.234747163403,
          24.8741433355961
        ],
        "type": "Point"
      },
      "id": "111234"
    },
    {
      "type": "Feature",
      "properties": {
        "id": "111278",
        "title": "前港",
        "address": "台北市士林區後港街98之1號2號1樓",
        "marker-color": "#01ac50"
      },
      "geometry": {
        "coordinates": [
          121.521541372406,
          25.085879071933398
        ],
        "type": "Point"
      },
      "id": "111278"
    },
    {
      "type": "Feature",
      "properties": {
        "id": "111289",
        "title": "台達電",
        "address": "桃園市龜山區山鶯路252號B1樓",
        "marker-color": "#01ac50"
      },
      "geometry": {
        "coordinates": [
          121.326938230178,
          24.985912725186
        ],
        "type": "Point"
      },
      "id": "111289"
    },
    {
      "type": "Feature",
      "properties": {
        "id": "111360",
        "title": "感恩",
        "address": "台南市永康區烏竹里自強路825-1號",
        "marker-color": "#01ac50"
      },
      "geometry": {
        "coordinates": [
          120.264164,
          23.037789
        ],
        "type": "Point"
      },
      "id": "111360"
    },
    {
      "type": "Feature",
      "properties": {
        "id": "111371",
        "title": "俊安",
        "address": "新北市樹林區俊英街156號",
        "marker-color": "#01ac50"
      },
      "geometry": {
        "coordinates": [
          121.426895,
          25.006527
        ],
        "type": "Point"
      },
      "id": "111371"
    },
    {
      "type": "Feature",
      "properties": {
        "id": "111382",
        "title": "圓興",
        "address": "高雄市旗山區旗甲路二段373號1樓",
        "marker-color": "#01ac50"
      },
      "geometry": {
        "coordinates": [
          120.497757,
          22.923467
        ],
        "type": "Point"
      },
      "id": "111382"
    },
    {
      "type": "Feature",
      "properties": {
        "id": "111393",
        "title": "嶺中",
        "address": "台中市南屯區永春南路58號",
        "marker-color": "#01ac50"
      },
      "geometry": {
        "coordinates": [
          120.611502,
          24.138575
        ],
        "type": "Point"
      },
      "id": "111393"
    },
    {
      "type": "Feature",
      "properties": {
        "id": "111418",
        "title": "中同",
        "address": "桃園市中壢區大同路141號143號1樓",
        "marker-color": "#01ac50"
      },
      "geometry": {
        "coordinates": [
          121.22201515561,
          24.956584623556402
        ],
        "type": "Point"
      },
      "id": "111418"
    },
    {
      "type": "Feature",
      "properties": {
        "id": "111441",
        "title": "合維",
        "address": "台北市大安區四維路170巷8號1樓",
        "marker-color": "#01ac50"
      },
      "geometry": {
        "coordinates": [
          121.54762538947301,
          25.0281958700811
        ],
        "type": "Point"
      },
      "id": "111441"
    },
    {
      "type": "Feature",
      "properties": {
        "id": "111452",
        "title": "新揚",
        "address": "新竹市東區民生路149號151號153號1樓",
        "marker-color": "#01ac50"
      },
      "geometry": {
        "coordinates": [
          120.976778,
          24.810291
        ],
        "type": "Point"
      },
      "id": "111452"
    },
    {
      "type": "Feature",
      "properties": {
        "id": "111485",
        "title": "熱陽",
        "address": "台中市北屯區熱河路二段217號",
        "marker-color": "#01ac50"
      },
      "geometry": {
        "coordinates": [
          120.687835,
          24.173866
        ],
        "type": "Point"
      },
      "id": "111485"
    },
    {
      "type": "Feature",
      "properties": {
        "id": "111500",
        "title": "嘉府",
        "address": "嘉義市東區民權路194號196號198號",
        "marker-color": "#01ac50"
      },
      "geometry": {
        "coordinates": [
          120.455146,
          23.483269
        ],
        "type": "Point"
      },
      "id": "111500"
    },
    {
      "type": "Feature",
      "properties": {
        "id": "111511",
        "title": "翁聚德",
        "address": "嘉義縣中埔鄉和睦村司公部4-20號1樓",
        "marker-color": "#01ac50"
      },
      "geometry": {
        "coordinates": [
          120.480863,
          23.451026
        ],
        "type": "Point"
      },
      "id": "111511"
    },
    {
      "type": "Feature",
      "properties": {
        "id": "111522",
        "title": "文城",
        "address": "桃園市桃園區龍壽街273巷1號1樓",
        "marker-color": "#01ac50"
      },
      "geometry": {
        "coordinates": [
          121.267168,
          24.989017
        ],
        "type": "Point"
      },
      "id": "111522"
    },
    {
      "type": "Feature",
      "properties": {
        "id": "111533",
        "title": "嘉和",
        "address": "嘉義市東區中山路169號171號173號",
        "marker-color": "#01ac50"
      },
      "geometry": {
        "coordinates": [
          120.455862,
          23.481663
        ],
        "type": "Point"
      },
      "id": "111533"
    },
    {
      "type": "Feature",
      "properties": {
        "id": "111544",
        "title": "向日葵",
        "address": "南投縣草屯鎮芬草路三段219-1號",
        "marker-color": "#01ac50"
      },
      "geometry": {
        "coordinates": [
          120.657701,
          24.000617
        ],
        "type": "Point"
      },
      "id": "111544"
    },
    {
      "type": "Feature",
      "properties": {
        "id": "111555",
        "title": "日月光",
        "address": "桃園市中壢區中華路一段560號",
        "marker-color": "#01ac50"
      },
      "geometry": {
        "coordinates": [
          121.251167,
          24.969882
        ],
        "type": "Point"
      },
      "id": "111555"
    },
    {
      "type": "Feature",
      "properties": {
        "id": "111614",
        "title": "凱華",
        "address": "桃園市龜山區文化二路183號1樓",
        "marker-color": "#01ac50"
      },
      "geometry": {
        "coordinates": [
          121.371941,
          25.052355
        ],
        "type": "Point"
      },
      "id": "111614"
    },
    {
      "type": "Feature",
      "properties": {
        "id": "111636",
        "title": "江東",
        "address": "台北市中山區長安東路二段43號45-1號1樓",
        "marker-color": "#01ac50"
      },
      "geometry": {
        "coordinates": [
          121.53175237863,
          25.048693941916397
        ],
        "type": "Point"
      },
      "id": "111636"
    },
    {
      "type": "Feature",
      "properties": {
        "id": "111647",
        "title": "德旺",
        "address": "新北市中和區壽德街22號1樓",
        "marker-color": "#01ac50"
      },
      "geometry": {
        "coordinates": [
          121.466219,
          24.994651
        ],
        "type": "Point"
      },
      "id": "111647"
    },
    {
      "type": "Feature",
      "properties": {
        "id": "111717",
        "title": "鎮權",
        "address": "台中市沙鹿區鎮南路二段107號109號",
        "marker-color": "#01ac50"
      },
      "geometry": {
        "coordinates": [
          120.569375,
          24.219827
        ],
        "type": "Point"
      },
      "id": "111717"
    },
    {
      "type": "Feature",
      "properties": {
        "id": "111739",
        "title": "勵志",
        "address": "高雄市岡山區筧橋路12號16號1樓",
        "marker-color": "#01ac50"
      },
      "geometry": {
        "coordinates": [
          120.295563,
          22.788272
        ],
        "type": "Point"
      },
      "id": "111739"
    },
    {
      "type": "Feature",
      "properties": {
        "id": "111751",
        "title": "嘉國",
        "address": "嘉義市東區民族路102號",
        "marker-color": "#01ac50"
      },
      "geometry": {
        "coordinates": [
          120.459185,
          23.477048
        ],
        "type": "Point"
      },
      "id": "111751"
    },
    {
      "type": "Feature",
      "properties": {
        "id": "111795",
        "title": "亞文",
        "address": "桃園市中壢區龍川街108號110號1樓2樓及112號1樓",
        "marker-color": "#01ac50"
      },
      "geometry": {
        "coordinates": [
          121.246578172569,
          24.9346845469249
        ],
        "type": "Point"
      },
      "id": "111795"
    },
    {
      "type": "Feature",
      "properties": {
        "id": "111809",
        "title": "榮譽",
        "address": "台南市東區榮譽街86號86-1號1樓",
        "marker-color": "#01ac50"
      },
      "geometry": {
        "coordinates": [
          120.21741153092199,
          22.9746966995062
        ],
        "type": "Point"
      },
      "id": "111809"
    },
    {
      "type": "Feature",
      "properties": {
        "id": "111821",
        "title": "新國",
        "address": "台南市新營區大宏里民治東路1號1樓2樓",
        "marker-color": "#01ac50"
      },
      "geometry": {
        "coordinates": [
          120.322639,
          23.310985
        ],
        "type": "Point"
      },
      "id": "111821"
    },
    {
      "type": "Feature",
      "properties": {
        "id": "111832",
        "title": "新後昌",
        "address": "高雄市楠梓區錦屏里後昌路115號1樓",
        "marker-color": "#01ac50"
      },
      "geometry": {
        "coordinates": [
          120.310683598439,
          22.7187158090166
        ],
        "type": "Point"
      },
      "id": "111832"
    },
    {
      "type": "Feature",
      "properties": {
        "id": "111843",
        "title": "學源",
        "address": "高雄市前鎮區三多二路437號439號441號1樓",
        "marker-color": "#01ac50"
      },
      "geometry": {
        "coordinates": [
          120.31577060523,
          22.6176794568597
        ],
        "type": "Point"
      },
      "id": "111843"
    },
    {
      "type": "Feature",
      "properties": {
        "id": "111854",
        "title": "布洛瓦",
        "address": "苗栗縣竹南鎮科東三路12號",
        "marker-color": "#01ac50"
      },
      "geometry": {
        "coordinates": [
          120.919455944828,
          24.707668754969703
        ],
        "type": "Point"
      },
      "id": "111854"
    },
    {
      "type": "Feature",
      "properties": {
        "id": "111865",
        "title": "東泰",
        "address": "台中市東勢區東蘭路41-5號",
        "marker-color": "#01ac50"
      },
      "geometry": {
        "coordinates": [
          120.826235,
          24.264699
        ],
        "type": "Point"
      },
      "id": "111865"
    },
    {
      "type": "Feature",
      "properties": {
        "id": "111876",
        "title": "倍沅",
        "address": "台中市神岡區中山路473號",
        "marker-color": "#01ac50"
      },
      "geometry": {
        "coordinates": [
          120.686827,
          24.246387
        ],
        "type": "Point"
      },
      "id": "111876"
    },
    {
      "type": "Feature",
      "properties": {
        "id": "111898",
        "title": "同銘",
        "address": "桃園市龜山區大同路212號1樓",
        "marker-color": "#01ac50"
      },
      "geometry": {
        "coordinates": [
          121.34402524240001,
          24.9906727416498
        ],
        "type": "Point"
      },
      "id": "111898"
    },
    {
      "type": "Feature",
      "properties": {
        "id": "111913",
        "title": "天下",
        "address": "新北市三峽區中正路一段110號112號1樓",
        "marker-color": "#01ac50"
      },
      "geometry": {
        "coordinates": [
          121.373984,
          24.92959
        ],
        "type": "Point"
      },
      "id": "111913"
    },
    {
      "type": "Feature",
      "properties": {
        "id": "111946",
        "title": "城雅",
        "address": "新北市樹林區學成路519號1樓",
        "marker-color": "#01ac50"
      },
      "geometry": {
        "coordinates": [
          121.379802,
          24.945952
        ],
        "type": "Point"
      },
      "id": "111946"
    },
    {
      "type": "Feature",
      "properties": {
        "id": "111957",
        "title": "長治",
        "address": "屏東縣長治鄉新潭村長興路13號1樓",
        "marker-color": "#01ac50"
      },
      "geometry": {
        "coordinates": [
          120.52733072816899,
          22.6774586686835
        ],
        "type": "Point"
      },
      "id": "111957"
    },
    {
      "type": "Feature",
      "properties": {
        "id": "111979",
        "title": "喬城",
        "address": "台中市大里區大智路567號",
        "marker-color": "#01ac50"
      },
      "geometry": {
        "coordinates": [
          120.690497,
          24.123243
        ],
        "type": "Point"
      },
      "id": "111979"
    },
    {
      "type": "Feature",
      "properties": {
        "id": "111980",
        "title": "花農",
        "address": "花蓮縣花蓮市建國路236號238號1樓",
        "marker-color": "#01ac50"
      },
      "geometry": {
        "coordinates": [
          121.600168390571,
          23.9843302252341
        ],
        "type": "Point"
      },
      "id": "111980"
    },
    {
      "type": "Feature",
      "properties": {
        "id": "112053",
        "title": "神農",
        "address": "高雄市林園區廣應里王公路341號343號",
        "marker-color": "#01ac50"
      },
      "geometry": {
        "coordinates": [
          120.388482,
          22.507709
        ],
        "type": "Point"
      },
      "id": "112053"
    },
    {
      "type": "Feature",
      "properties": {
        "id": "112075",
        "title": "財神",
        "address": "台南市東區中華東路二段171-177號",
        "marker-color": "#01ac50"
      },
      "geometry": {
        "coordinates": [
          120.232996,
          22.985012
        ],
        "type": "Point"
      },
      "id": "112075"
    },
    {
      "type": "Feature",
      "properties": {
        "id": "112086",
        "title": "尊品",
        "address": "桃園市桃園區建國路41-1號1樓",
        "marker-color": "#01ac50"
      },
      "geometry": {
        "coordinates": [
          121.316931223077,
          24.9855557240282
        ],
        "type": "Point"
      },
      "id": "112086"
    },
    {
      "type": "Feature",
      "properties": {
        "id": "112134",
        "title": "后興",
        "address": "台中市后里區甲后路一段1202號1樓",
        "marker-color": "#01ac50"
      },
      "geometry": {
        "coordinates": [
          120.708844,
          24.311252
        ],
        "type": "Point"
      },
      "id": "112134"
    },
    {
      "type": "Feature",
      "properties": {
        "id": "112145",
        "title": "中興嶺",
        "address": "台中市新社區中興嶺172之2號",
        "marker-color": "#01ac50"
      },
      "geometry": {
        "coordinates": [
          120.794454,
          24.205466
        ],
        "type": "Point"
      },
      "id": "112145"
    },
    {
      "type": "Feature",
      "properties": {
        "id": "112189",
        "title": "瑞芳",
        "address": "新北市瑞芳區明燈路三段52號54號",
        "marker-color": "#01ac50"
      },
      "geometry": {
        "coordinates": [
          121.807091,
          25.108005
        ],
        "type": "Point"
      },
      "id": "112189"
    },
    {
      "type": "Feature",
      "properties": {
        "id": "112190",
        "title": "寶慶",
        "address": "台中市西屯區西屯路二段256巷8號10號",
        "marker-color": "#01ac50"
      },
      "geometry": {
        "coordinates": [
          120.647365768592,
          24.171041880143697
        ],
        "type": "Point"
      },
      "id": "112190"
    },
    {
      "type": "Feature",
      "properties": {
        "id": "112204",
        "title": "興城",
        "address": "台中市大里區塗城路765號",
        "marker-color": "#01ac50"
      },
      "geometry": {
        "coordinates": [
          120.699024,
          24.089348
        ],
        "type": "Point"
      },
      "id": "112204"
    },
    {
      "type": "Feature",
      "properties": {
        "id": "112215",
        "title": "員林",
        "address": "彰化縣員林市忠孝里4鄰員東路二段417號",
        "marker-color": "#01ac50"
      },
      "geometry": {
        "coordinates": [
          120.579095728466,
          23.957699134891598
        ],
        "type": "Point"
      },
      "id": "112215"
    },
    {
      "type": "Feature",
      "properties": {
        "id": "112237",
        "title": "詠權",
        "address": "台中市南區五權南路527號",
        "marker-color": "#01ac50"
      },
      "geometry": {
        "coordinates": [
          120.669870784505,
          24.1171606923013
        ],
        "type": "Point"
      },
      "id": "112237"
    },
    {
      "type": "Feature",
      "properties": {
        "id": "112260",
        "title": "新楠梓",
        "address": "高雄市楠梓區中陽里楠梓新路188號188-1號1樓",
        "marker-color": "#01ac50"
      },
      "geometry": {
        "coordinates": [
          120.325034606785,
          22.7266358369165
        ],
        "type": "Point"
      },
      "id": "112260"
    },
    {
      "type": "Feature",
      "properties": {
        "id": "112293",
        "title": "龍昌",
        "address": "桃園市龍潭區大昌路二段139之1號",
        "marker-color": "#01ac50"
      },
      "geometry": {
        "coordinates": [
          121.222854,
          24.865171
        ],
        "type": "Point"
      },
      "id": "112293"
    },
    {
      "type": "Feature",
      "properties": {
        "id": "112307",
        "title": "社上",
        "address": "屏東縣萬丹鄉社中村社皮路三段246號248號1樓",
        "marker-color": "#01ac50"
      },
      "geometry": {
        "coordinates": [
          120.47091,
          22.618507
        ],
        "type": "Point"
      },
      "id": "112307"
    },
    {
      "type": "Feature",
      "properties": {
        "id": "112318",
        "title": "台元",
        "address": "新竹縣竹北市台元街26-8號",
        "marker-color": "#01ac50"
      },
      "geometry": {
        "coordinates": [
          121.01266,
          24.84093
        ],
        "type": "Point"
      },
      "id": "112318"
    },
    {
      "type": "Feature",
      "properties": {
        "id": "112329",
        "title": "海湖",
        "address": "桃園市蘆竹區濱海路一段40號42號",
        "marker-color": "#01ac50"
      },
      "geometry": {
        "coordinates": [
          121.254566,
          25.111698
        ],
        "type": "Point"
      },
      "id": "112329"
    },
    {
      "type": "Feature",
      "properties": {
        "id": "112341",
        "title": "健神",
        "address": "宜蘭縣宜蘭市神農路二段8號10號",
        "marker-color": "#01ac50"
      },
      "geometry": {
        "coordinates": [
          121.750695525944,
          24.750051894814497
        ],
        "type": "Point"
      },
      "id": "112341"
    },
    {
      "type": "Feature",
      "properties": {
        "id": "112385",
        "title": "大陽",
        "address": "彰化縣彰化市延平里大埔路405號",
        "marker-color": "#01ac50"
      },
      "geometry": {
        "coordinates": [
          120.543915202691,
          24.0629355017111
        ],
        "type": "Point"
      },
      "id": "112385"
    },
    {
      "type": "Feature",
      "properties": {
        "id": "112400",
        "title": "金崙",
        "address": "新北市淡水區沙崙路24號1樓",
        "marker-color": "#01ac50"
      },
      "geometry": {
        "coordinates": [
          121.421458,
          25.181224
        ],
        "type": "Point"
      },
      "id": "112400"
    },
    {
      "type": "Feature",
      "properties": {
        "id": "112422",
        "title": "晶圓",
        "address": "台南市善化區南科北路1-1號(P3廠)",
        "marker-color": "#01ac50"
      },
      "geometry": {
        "coordinates": [
          120.276272,
          23.111105
        ],
        "type": "Point"
      },
      "id": "112422"
    },
    {
      "type": "Feature",
      "properties": {
        "id": "112466",
        "title": "聖華",
        "address": "新竹市北區西濱路一段399號",
        "marker-color": "#01ac50"
      },
      "geometry": {
        "coordinates": [
          120.932362,
          24.840943
        ],
        "type": "Point"
      },
      "id": "112466"
    },
    {
      "type": "Feature",
      "properties": {
        "id": "112477",
        "title": "極緻",
        "address": "基隆市仁愛區仁二路197號1樓",
        "marker-color": "#01ac50"
      },
      "geometry": {
        "coordinates": [
          121.744586538664,
          25.1287272172126
        ],
        "type": "Point"
      },
      "id": "112477"
    },
    {
      "type": "Feature",
      "properties": {
        "id": "112503",
        "title": "嘉雅",
        "address": "嘉義市東區大雅路二段421號1樓",
        "marker-color": "#01ac50"
      },
      "geometry": {
        "coordinates": [
          120.473458,
          23.47749
        ],
        "type": "Point"
      },
      "id": "112503"
    },
    {
      "type": "Feature",
      "properties": {
        "id": "112525",
        "title": "新北中",
        "address": "台南市佳里區延平路195號",
        "marker-color": "#01ac50"
      },
      "geometry": {
        "coordinates": [
          120.178508,
          23.158777
        ],
        "type": "Point"
      },
      "id": "112525"
    },
    {
      "type": "Feature",
      "properties": {
        "id": "112558",
        "title": "夏恩",
        "address": "雲林縣虎尾鎮立仁里復興路137號",
        "marker-color": "#01ac50"
      },
      "geometry": {
        "coordinates": [
          120.428712,
          23.707695
        ],
        "type": "Point"
      },
      "id": "112558"
    },
    {
      "type": "Feature",
      "properties": {
        "id": "112569",
        "title": "宏福",
        "address": "新北市新莊區公園一路34號36號1樓",
        "marker-color": "#01ac50"
      },
      "geometry": {
        "coordinates": [
          121.443509,
          25.035416
        ],
        "type": "Point"
      },
      "id": "112569"
    },
    {
      "type": "Feature",
      "properties": {
        "id": "112570",
        "title": "環雅",
        "address": "台中市大雅區雅環路二段320號一樓",
        "marker-color": "#01ac50"
      },
      "geometry": {
        "coordinates": [
          120.647856,
          24.2294
        ],
        "type": "Point"
      },
      "id": "112570"
    },
    {
      "type": "Feature",
      "properties": {
        "id": "112592",
        "title": "雙榮",
        "address": "桃園市平鎮區雙連里民族路雙連三段8號1樓",
        "marker-color": "#01ac50"
      },
      "geometry": {
        "coordinates": [
          121.179205,
          24.958825
        ],
        "type": "Point"
      },
      "id": "112592"
    },
    {
      "type": "Feature",
      "properties": {
        "id": "112617",
        "title": "得寶",
        "address": "桃園市桃園區春日路1344號1346號",
        "marker-color": "#01ac50"
      },
      "geometry": {
        "coordinates": [
          121.306051,
          25.026408
        ],
        "type": "Point"
      },
      "id": "112617"
    },
    {
      "type": "Feature",
      "properties": {
        "id": "112639",
        "title": "美村",
        "address": "台中市西區美村路一段542號546號",
        "marker-color": "#01ac50"
      },
      "geometry": {
        "coordinates": [
          120.661504,
          24.139612
        ],
        "type": "Point"
      },
      "id": "112639"
    },
    {
      "type": "Feature",
      "properties": {
        "id": "112640",
        "title": "鹿濱",
        "address": "彰化縣鹿港鎮彰濱五路二段392號",
        "marker-color": "#01ac50"
      },
      "geometry": {
        "coordinates": [
          120.42036,
          24.075647
        ],
        "type": "Point"
      },
      "id": "112640"
    },
    {
      "type": "Feature",
      "properties": {
        "id": "112651",
        "title": "科安",
        "address": "台中市西屯區國安一路105號107號109號一樓",
        "marker-color": "#01ac50"
      },
      "geometry": {
        "coordinates": [
          120.613471,
          24.190929
        ],
        "type": "Point"
      },
      "id": "112651"
    },
    {
      "type": "Feature",
      "properties": {
        "id": "112673",
        "title": "港達",
        "address": "台南市安定區港口里245-10號1樓",
        "marker-color": "#01ac50"
      },
      "geometry": {
        "coordinates": [
          120.235537,
          23.091984
        ],
        "type": "Point"
      },
      "id": "112673"
    },
    {
      "type": "Feature",
      "properties": {
        "id": "112684",
        "title": "塔優",
        "address": "台北市松山區撫遠街197號199號",
        "marker-color": "#01ac50"
      },
      "geometry": {
        "coordinates": [
          121.568049,
          25.059856
        ],
        "type": "Point"
      },
      "id": "112684"
    },
    {
      "type": "Feature",
      "properties": {
        "id": "112710",
        "title": "恭敬",
        "address": "苗栗縣苗栗市恭敬里恭敬路18號",
        "marker-color": "#01ac50"
      },
      "geometry": {
        "coordinates": [
          120.815078,
          24.550183
        ],
        "type": "Point"
      },
      "id": "112710"
    },
    {
      "type": "Feature",
      "properties": {
        "id": "112787",
        "title": "滿州",
        "address": "屏東縣滿州鄉滿州村中山路56號1樓",
        "marker-color": "#01ac50"
      },
      "geometry": {
        "coordinates": [
          120.838988,
          22.020716
        ],
        "type": "Point"
      },
      "id": "112787"
    },
    {
      "type": "Feature",
      "properties": {
        "id": "112798",
        "title": "同慶",
        "address": "宜蘭縣宜蘭市中山路三段203號205號207號1樓",
        "marker-color": "#01ac50"
      },
      "geometry": {
        "coordinates": [
          121.753257,
          24.760726
        ],
        "type": "Point"
      },
      "id": "112798"
    },
    {
      "type": "Feature",
      "properties": {
        "id": "112802",
        "title": "六家",
        "address": "新竹縣竹北市福興東路二段105號1樓",
        "marker-color": "#01ac50"
      },
      "geometry": {
        "coordinates": [
          121.028538,
          24.814724
        ],
        "type": "Point"
      },
      "id": "112802"
    },
    {
      "type": "Feature",
      "properties": {
        "id": "112824",
        "title": "馬太鞍",
        "address": "花蓮縣光復鄉中山路一段125號",
        "marker-color": "#01ac50"
      },
      "geometry": {
        "coordinates": [
          121.419042,
          23.656727
        ],
        "type": "Point"
      },
      "id": "112824"
    },
    {
      "type": "Feature",
      "properties": {
        "id": "112857",
        "title": "永和山",
        "address": "苗栗縣頭份市水源路206號1樓",
        "marker-color": "#01ac50"
      },
      "geometry": {
        "coordinates": [
          120.913906,
          24.673939
        ],
        "type": "Point"
      },
      "id": "112857"
    },
    {
      "type": "Feature",
      "properties": {
        "id": "112879",
        "title": "碇內",
        "address": "基隆市暖暖區源遠路158號160號",
        "marker-color": "#01ac50"
      },
      "geometry": {
        "coordinates": [
          121.748914,
          25.098224
        ],
        "type": "Point"
      },
      "id": "112879"
    },
    {
      "type": "Feature",
      "properties": {
        "id": "112938",
        "title": "圓達",
        "address": "宜蘭縣礁溪鄉礁溪路七段65號69號",
        "marker-color": "#01ac50"
      },
      "geometry": {
        "coordinates": [
          121.785351,
          24.836589
        ],
        "type": "Point"
      },
      "id": "112938"
    },
    {
      "type": "Feature",
      "properties": {
        "id": "112949",
        "title": "頂番",
        "address": "彰化縣鹿港鎮頂草路一段61號",
        "marker-color": "#01ac50"
      },
      "geometry": {
        "coordinates": [
          120.480153,
          24.08734
        ],
        "type": "Point"
      },
      "id": "112949"
    },
    {
      "type": "Feature",
      "properties": {
        "id": "113001",
        "title": "港強",
        "address": "台中市西屯區福科路295號一樓",
        "marker-color": "#01ac50"
      },
      "geometry": {
        "coordinates": [
          120.624704,
          24.181942
        ],
        "type": "Point"
      },
      "id": "113001"
    },
    {
      "type": "Feature",
      "properties": {
        "id": "113023",
        "title": "梅北",
        "address": "嘉義縣梅山鄉梅北村中山路437號",
        "marker-color": "#01ac50"
      },
      "geometry": {
        "coordinates": [
          120.553037,
          23.585759
        ],
        "type": "Point"
      },
      "id": "113023"
    },
    {
      "type": "Feature",
      "properties": {
        "id": "113045",
        "title": "全鎮",
        "address": "桃園市桃園區春日路238號240號1樓",
        "marker-color": "#01ac50"
      },
      "geometry": {
        "coordinates": [
          121.314983221944,
          24.9985387693836
        ],
        "type": "Point"
      },
      "id": "113045"
    },
    {
      "type": "Feature",
      "properties": {
        "id": "113056",
        "title": "蓮慶",
        "address": "花蓮縣花蓮市林森路160號1樓",
        "marker-color": "#01ac50"
      },
      "geometry": {
        "coordinates": [
          121.60062539066399,
          23.978215203887398
        ],
        "type": "Point"
      },
      "id": "113056"
    },
    {
      "type": "Feature",
      "properties": {
        "id": "113078",
        "title": "濱海",
        "address": "桃園市大園區竹圍里五鄰竹圍街45-3號",
        "marker-color": "#01ac50"
      },
      "geometry": {
        "coordinates": [
          121.24323317272,
          25.1047461408385
        ],
        "type": "Point"
      },
      "id": "113078"
    },
    {
      "type": "Feature",
      "properties": {
        "id": "113089",
        "title": "秀湖",
        "address": "台北市內湖區成功路四段359號1樓",
        "marker-color": "#01ac50"
      },
      "geometry": {
        "coordinates": [
          121.600053429684,
          25.084554065992002
        ],
        "type": "Point"
      },
      "id": "113089"
    },
    {
      "type": "Feature",
      "properties": {
        "id": "113090",
        "title": "統崙",
        "address": "高雄市鳳山區中民里中崙四路6號8號1樓",
        "marker-color": "#01ac50"
      },
      "geometry": {
        "coordinates": [
          120.352407,
          22.599632
        ],
        "type": "Point"
      },
      "id": "113090"
    },
    {
      "type": "Feature",
      "properties": {
        "id": "113126",
        "title": "山上",
        "address": "台南市山上區南洲337-3號",
        "marker-color": "#01ac50"
      },
      "geometry": {
        "coordinates": [
          120.35212,
          23.103194
        ],
        "type": "Point"
      },
      "id": "113126"
    },
    {
      "type": "Feature",
      "properties": {
        "id": "113137",
        "title": "珊湖",
        "address": "苗栗縣頭份市中正三路271號1樓及親民路1號3號1樓",
        "marker-color": "#01ac50"
      },
      "geometry": {
        "coordinates": [
          120.958203971432,
          24.684474674051003
        ],
        "type": "Point"
      },
      "id": "113137"
    },
    {
      "type": "Feature",
      "properties": {
        "id": "113160",
        "title": "指南",
        "address": "台北市文山區指南路一段34號36號1樓",
        "marker-color": "#01ac50"
      },
      "geometry": {
        "coordinates": [
          121.56966440408,
          24.9876877282581
        ],
        "type": "Point"
      },
      "id": "113160"
    },
    {
      "type": "Feature",
      "properties": {
        "id": "113182",
        "title": "後港",
        "address": "新北市新莊區後港一路76巷14弄1號1樓",
        "marker-color": "#01ac50"
      },
      "geometry": {
        "coordinates": [
          121.427277,
          25.025543
        ],
        "type": "Point"
      },
      "id": "113182"
    },
    {
      "type": "Feature",
      "properties": {
        "id": "113193",
        "title": "崇祐",
        "address": "台南市東區崇成里崇明路561號1樓",
        "marker-color": "#01ac50"
      },
      "geometry": {
        "coordinates": [
          120.225831,
          22.970963
        ],
        "type": "Point"
      },
      "id": "113193"
    },
    {
      "type": "Feature",
      "properties": {
        "id": "113218",
        "title": "華鑫",
        "address": "新竹市香山區五福路二段725號727號729號1樓",
        "marker-color": "#01ac50"
      },
      "geometry": {
        "coordinates": [
          120.952717,
          24.756463
        ],
        "type": "Point"
      },
      "id": "113218"
    },
    {
      "type": "Feature",
      "properties": {
        "id": "113252",
        "title": "后里廠",
        "address": "台中市后里區馬場路1號",
        "marker-color": "#01ac50"
      },
      "geometry": {
        "coordinates": [
          120.726259,
          24.296923
        ],
        "type": "Point"
      },
      "id": "113252"
    },
    {
      "type": "Feature",
      "properties": {
        "id": "113274",
        "title": "台一",
        "address": "南投縣埔里鎮中山路一段149號",
        "marker-color": "#01ac50"
      },
      "geometry": {
        "coordinates": [
          121.012846,
          23.981247
        ],
        "type": "Point"
      },
      "id": "113274"
    },
    {
      "type": "Feature",
      "properties": {
        "id": "113285",
        "title": "民欣",
        "address": "新北市蘆洲區光榮路63號65號67號",
        "marker-color": "#01ac50"
      },
      "geometry": {
        "coordinates": [
          121.461126,
          25.088532
        ],
        "type": "Point"
      },
      "id": "113285"
    },
    {
      "type": "Feature",
      "properties": {
        "id": "113296",
        "title": "東宇",
        "address": "雲林縣斗六市文化路538號540號1樓",
        "marker-color": "#01ac50"
      },
      "geometry": {
        "coordinates": [
          120.557674,
          23.712807
        ],
        "type": "Point"
      },
      "id": "113296"
    },
    {
      "type": "Feature",
      "properties": {
        "id": "113311",
        "title": "嘉西",
        "address": "嘉義市西區大溪里北港路13鄰597號",
        "marker-color": "#01ac50"
      },
      "geometry": {
        "coordinates": [
          120.419195,
          23.48529
        ],
        "type": "Point"
      },
      "id": "113311"
    },
    {
      "type": "Feature",
      "properties": {
        "id": "113333",
        "title": "翁子",
        "address": "台中市豐原區豐勢路一段669號一樓",
        "marker-color": "#01ac50"
      },
      "geometry": {
        "coordinates": [
          120.735908,
          24.260801
        ],
        "type": "Point"
      },
      "id": "113333"
    },
    {
      "type": "Feature",
      "properties": {
        "id": "113344",
        "title": "大和園",
        "address": "桃園市大園區中山南路272號及272-1號1樓",
        "marker-color": "#01ac50"
      },
      "geometry": {
        "coordinates": [
          121.20007814143699,
          25.0597169838395
        ],
        "type": "Point"
      },
      "id": "113344"
    },
    {
      "type": "Feature",
      "properties": {
        "id": "113355",
        "title": "丰順",
        "address": "桃園市平鎮區中豐路一段281之1號1樓",
        "marker-color": "#01ac50"
      },
      "geometry": {
        "coordinates": [
          121.212927,
          24.925908
        ],
        "type": "Point"
      },
      "id": "113355"
    },
    {
      "type": "Feature",
      "properties": {
        "id": "113366",
        "title": "福華",
        "address": "苗栗縣苗栗市福星里中華路273號",
        "marker-color": "#01ac50"
      },
      "geometry": {
        "coordinates": [
          120.824503,
          24.577168
        ],
        "type": "Point"
      },
      "id": "113366"
    },
    {
      "type": "Feature",
      "properties": {
        "id": "113377",
        "title": "飛龍",
        "address": "新北市蘆洲區永安南路二段356號環堤大道2號6號",
        "marker-color": "#01ac50"
      },
      "geometry": {
        "coordinates": [
          121.456123,
          25.082842
        ],
        "type": "Point"
      },
      "id": "113377"
    },
    {
      "type": "Feature",
      "properties": {
        "id": "113388",
        "title": "華安",
        "address": "新北市蘆洲區長安街107號",
        "marker-color": "#01ac50"
      },
      "geometry": {
        "coordinates": [
          121.461437,
          25.08088
        ],
        "type": "Point"
      },
      "id": "113388"
    },
    {
      "type": "Feature",
      "properties": {
        "id": "113399",
        "title": "伍富",
        "address": "宜蘭縣宜蘭市女中路三段26-6號26-7號26-8號",
        "marker-color": "#01ac50"
      },
      "geometry": {
        "coordinates": [
          121.741814,
          24.745825
        ],
        "type": "Point"
      },
      "id": "113399"
    },
    {
      "type": "Feature",
      "properties": {
        "id": "113403",
        "title": "王功",
        "address": "彰化縣芳苑鄉王功村3鄰芳漢路王功段544號1樓",
        "marker-color": "#01ac50"
      },
      "geometry": {
        "coordinates": [
          120.340988,
          23.965555
        ],
        "type": "Point"
      },
      "id": "113403"
    },
    {
      "type": "Feature",
      "properties": {
        "id": "113425",
        "title": "富仁",
        "address": "台中市東區富榮街2號1樓",
        "marker-color": "#01ac50"
      },
      "geometry": {
        "coordinates": [
          120.692215,
          24.14548
        ],
        "type": "Point"
      },
      "id": "113425"
    },
    {
      "type": "Feature",
      "properties": {
        "id": "113458",
        "title": "莒光",
        "address": "新北市中和區莒光路138號1樓",
        "marker-color": "#01ac50"
      },
      "geometry": {
        "coordinates": [
          121.472365,
          25.001212
        ],
        "type": "Point"
      },
      "id": "113458"
    },
    {
      "type": "Feature",
      "properties": {
        "id": "113469",
        "title": "汶莊",
        "address": "台中市北區中清路一段102號1樓",
        "marker-color": "#01ac50"
      },
      "geometry": {
        "coordinates": [
          120.677505,
          24.153745
        ],
        "type": "Point"
      },
      "id": "113469"
    },
    {
      "type": "Feature",
      "properties": {
        "id": "113481",
        "title": "復中",
        "address": "高雄市苓雅區興中一路138號",
        "marker-color": "#01ac50"
      },
      "geometry": {
        "coordinates": [
          120.310447,
          22.617751
        ],
        "type": "Point"
      },
      "id": "113481"
    },
    {
      "type": "Feature",
      "properties": {
        "id": "113506",
        "title": "揚光",
        "address": "澎湖縣馬公市陽明里中華路175號1樓",
        "marker-color": "#01ac50"
      },
      "geometry": {
        "coordinates": [
          119.583397060397,
          23.5700857487196
        ],
        "type": "Point"
      },
      "id": "113506"
    },
    {
      "type": "Feature",
      "properties": {
        "id": "113517",
        "title": "東美",
        "address": "台南市東山區中興路1號",
        "marker-color": "#01ac50"
      },
      "geometry": {
        "coordinates": [
          120.403114,
          23.321935
        ],
        "type": "Point"
      },
      "id": "113517"
    },
    {
      "type": "Feature",
      "properties": {
        "id": "113539",
        "title": "虹諭",
        "address": "新北市三重區中正北路193巷21弄43號",
        "marker-color": "#01ac50"
      },
      "geometry": {
        "coordinates": [
          121.478994,
          25.071074
        ],
        "type": "Point"
      },
      "id": "113539"
    },
    {
      "type": "Feature",
      "properties": {
        "id": "113573",
        "title": "果林",
        "address": "桃園市大園區果林里3鄰拔子林23之45號1",
        "marker-color": "#01ac50"
      },
      "geometry": {
        "coordinates": [
          121.258113,
          25.075706
        ],
        "type": "Point"
      },
      "id": "113573"
    },
    {
      "type": "Feature",
      "properties": {
        "id": "113595",
        "title": "神洲",
        "address": "台中市神岡區神洲路332號",
        "marker-color": "#01ac50"
      },
      "geometry": {
        "coordinates": [
          120.702192,
          24.273937
        ],
        "type": "Point"
      },
      "id": "113595"
    },
    {
      "type": "Feature",
      "properties": {
        "id": "113609",
        "title": "和錦",
        "address": "新北市中和區錦和路402號404號",
        "marker-color": "#01ac50"
      },
      "geometry": {
        "coordinates": [
          121.490897,
          24.989899
        ],
        "type": "Point"
      },
      "id": "113609"
    },
    {
      "type": "Feature",
      "properties": {
        "id": "113621",
        "title": "新如東",
        "address": "高雄市三民區九如二路86號1樓",
        "marker-color": "#01ac50"
      },
      "geometry": {
        "coordinates": [
          120.31103160153701,
          22.6410295381718
        ],
        "type": "Point"
      },
      "id": "113621"
    },
    {
      "type": "Feature",
      "properties": {
        "id": "113665",
        "title": "蓮慈",
        "address": "花蓮縣花蓮市中山路一段7號9號1樓",
        "marker-color": "#01ac50"
      },
      "geometry": {
        "coordinates": [
          121.593973,
          23.996427
        ],
        "type": "Point"
      },
      "id": "113665"
    },
    {
      "type": "Feature",
      "properties": {
        "id": "113687",
        "title": "六合",
        "address": "南投縣水里鄉民生路175號1樓",
        "marker-color": "#01ac50"
      },
      "geometry": {
        "coordinates": [
          120.855597,
          23.810789
        ],
        "type": "Point"
      },
      "id": "113687"
    },
    {
      "type": "Feature",
      "properties": {
        "id": "113702",
        "title": "高城",
        "address": "桃園市八德區高城八街58巷5號1樓",
        "marker-color": "#01ac50"
      },
      "geometry": {
        "coordinates": [
          121.274237,
          24.978421
        ],
        "type": "Point"
      },
      "id": "113702"
    },
    {
      "type": "Feature",
      "properties": {
        "id": "113735",
        "title": "亞都",
        "address": "桃園市大溪區僑愛一街72巷15號",
        "marker-color": "#01ac50"
      },
      "geometry": {
        "coordinates": [
          121.294326,
          24.922441
        ],
        "type": "Point"
      },
      "id": "113735"
    },
    {
      "type": "Feature",
      "properties": {
        "id": "113746",
        "title": "德欣",
        "address": "基隆市中山區復興路328號之6號之7號1樓",
        "marker-color": "#01ac50"
      },
      "geometry": {
        "coordinates": [
          121.727058526465,
          25.1495782904457
        ],
        "type": "Point"
      },
      "id": "113746"
    },
    {
      "type": "Feature",
      "properties": {
        "id": "113768",
        "title": "大樹",
        "address": "高雄市大樹區樣腳里中興東路7號9號11號13號",
        "marker-color": "#01ac50"
      },
      "geometry": {
        "coordinates": [
          120.432889,
          22.691172
        ],
        "type": "Point"
      },
      "id": "113768"
    },
    {
      "type": "Feature",
      "properties": {
        "id": "113779",
        "title": "春秋",
        "address": "新北市板橋區莒光路40巷14號16號",
        "marker-color": "#01ac50"
      },
      "geometry": {
        "coordinates": [
          121.470191,
          25.023859
        ],
        "type": "Point"
      },
      "id": "113779"
    },
    {
      "type": "Feature",
      "properties": {
        "id": "113816",
        "title": "金福興",
        "address": "彰化縣福興鄉員鹿路二段198號1樓",
        "marker-color": "#01ac50"
      },
      "geometry": {
        "coordinates": [
          120.436049,
          24.0399
        ],
        "type": "Point"
      },
      "id": "113816"
    },
    {
      "type": "Feature",
      "properties": {
        "id": "113838",
        "title": "興韻",
        "address": "新竹縣竹北市福興路753號",
        "marker-color": "#01ac50"
      },
      "geometry": {
        "coordinates": [
          121.011796,
          24.821896
        ],
        "type": "Point"
      },
      "id": "113838"
    },
    {
      "type": "Feature",
      "properties": {
        "id": "113849",
        "title": "平昌",
        "address": "桃園市桃園區中平路161號1樓",
        "marker-color": "#01ac50"
      },
      "geometry": {
        "coordinates": [
          121.293602206556,
          24.9854942240092
        ],
        "type": "Point"
      },
      "id": "113849"
    },
    {
      "type": "Feature",
      "properties": {
        "id": "113883",
        "title": "東衛",
        "address": "澎湖縣馬公市東衛里19鄰9之2號",
        "marker-color": "#01ac50"
      },
      "geometry": {
        "coordinates": [
          119.598707,
          23.569175
        ],
        "type": "Point"
      },
      "id": "113883"
    },
    {
      "type": "Feature",
      "properties": {
        "id": "113894",
        "title": "凱園",
        "address": "新北市樹林區國凱街55號1樓",
        "marker-color": "#01ac50"
      },
      "geometry": {
        "coordinates": [
          121.420451,
          24.97902
        ],
        "type": "Point"
      },
      "id": "113894"
    },
    {
      "type": "Feature",
      "properties": {
        "id": "113908",
        "title": "延龍",
        "address": "台北市大同區延平北路四段16號18號1樓",
        "marker-color": "#01ac50"
      },
      "geometry": {
        "coordinates": [
          121.51078836407501,
          25.0692420139955
        ],
        "type": "Point"
      },
      "id": "113908"
    },
    {
      "type": "Feature",
      "properties": {
        "id": "113919",
        "title": "觀群",
        "address": "桃園市大園區大工路106號",
        "marker-color": "#01ac50"
      },
      "geometry": {
        "coordinates": [
          121.179844,
          25.067604
        ],
        "type": "Point"
      },
      "id": "113919"
    },
    {
      "type": "Feature",
      "properties": {
        "id": "113920",
        "title": "雙假",
        "address": "桃園市桃園區大有路660號1樓之2",
        "marker-color": "#01ac50"
      },
      "geometry": {
        "coordinates": [
          121.31660622344201,
          25.016681832727997
        ],
        "type": "Point"
      },
      "id": "113920"
    },
    {
      "type": "Feature",
      "properties": {
        "id": "113931",
        "title": "新北",
        "address": "台南市新營區民治路228號1樓",
        "marker-color": "#01ac50"
      },
      "geometry": {
        "coordinates": [
          120.304373,
          23.308012
        ],
        "type": "Point"
      },
      "id": "113931"
    },
    {
      "type": "Feature",
      "properties": {
        "id": "113953",
        "title": "正心",
        "address": "高雄市苓雅區正大里輔仁路一段145號1樓",
        "marker-color": "#01ac50"
      },
      "geometry": {
        "coordinates": [
          120.332881,
          22.630138
        ],
        "type": "Point"
      },
      "id": "113953"
    },
    {
      "type": "Feature",
      "properties": {
        "id": "113986",
        "title": "至富",
        "address": "新北市林口區中湖里14鄰中湖40號之9",
        "marker-color": "#01ac50"
      },
      "geometry": {
        "coordinates": [
          121.383297,
          25.091498
        ],
        "type": "Point"
      },
      "id": "113986"
    },
    {
      "type": "Feature",
      "properties": {
        "id": "113997",
        "title": "易鴻",
        "address": "台中市霧峰區柳豐路422號1樓",
        "marker-color": "#01ac50"
      },
      "geometry": {
        "coordinates": [
          120.687714,
          24.045585
        ],
        "type": "Point"
      },
      "id": "113997"
    },
    {
      "type": "Feature",
      "properties": {
        "id": "114048",
        "title": "福寶",
        "address": "台中市北屯區陳平路50號52號1樓",
        "marker-color": "#01ac50"
      },
      "geometry": {
        "coordinates": [
          120.667104781378,
          24.1850389291774
        ],
        "type": "Point"
      },
      "id": "114048"
    },
    {
      "type": "Feature",
      "properties": {
        "id": "114071",
        "title": "復華",
        "address": "桃園市中壢區中華路一段670號672號1樓",
        "marker-color": "#01ac50"
      },
      "geometry": {
        "coordinates": [
          121.2495831752,
          24.9691786673597
        ],
        "type": "Point"
      },
      "id": "114071"
    },
    {
      "type": "Feature",
      "properties": {
        "id": "114130",
        "title": "恆春",
        "address": "屏東縣恆春鎮網紗里省北路45號47號49號1樓",
        "marker-color": "#01ac50"
      },
      "geometry": {
        "coordinates": [
          120.7438668625,
          22.0102023446961
        ],
        "type": "Point"
      },
      "id": "114130"
    },
    {
      "type": "Feature",
      "properties": {
        "id": "114152",
        "title": "鄉林夏都",
        "address": "台中市西區忠明南路117號1樓",
        "marker-color": "#01ac50"
      },
      "geometry": {
        "coordinates": [
          120.657360775564,
          24.152981817205703
        ],
        "type": "Point"
      },
      "id": "114152"
    },
    {
      "type": "Feature",
      "properties": {
        "id": "114174",
        "title": "慈佑",
        "address": "新北市三重區溪尾街189號191號",
        "marker-color": "#01ac50"
      },
      "geometry": {
        "coordinates": [
          121.488702,
          25.08051
        ],
        "type": "Point"
      },
      "id": "114174"
    },
    {
      "type": "Feature",
      "properties": {
        "id": "114196",
        "title": "鼓波",
        "address": "高雄市鼓山區臨海二路45-1號",
        "marker-color": "#01ac50"
      },
      "geometry": {
        "coordinates": [
          120.271803578722,
          22.6229384742788
        ],
        "type": "Point"
      },
      "id": "114196"
    },
    {
      "type": "Feature",
      "properties": {
        "id": "114200",
        "title": "路好",
        "address": "高雄市路竹區大社路162號",
        "marker-color": "#01ac50"
      },
      "geometry": {
        "coordinates": [
          120.264228,
          22.865239
        ],
        "type": "Point"
      },
      "id": "114200"
    },
    {
      "type": "Feature",
      "properties": {
        "id": "114222",
        "title": "南都",
        "address": "台南市南區金華路一段27號1樓",
        "marker-color": "#01ac50"
      },
      "geometry": {
        "coordinates": [
          120.189152,
          22.961835
        ],
        "type": "Point"
      },
      "id": "114222"
    },
    {
      "type": "Feature",
      "properties": {
        "id": "114233",
        "title": "上芸",
        "address": "高雄市林園區西溪路133-30號",
        "marker-color": "#01ac50"
      },
      "geometry": {
        "coordinates": [
          120.395179,
          22.48897
        ],
        "type": "Point"
      },
      "id": "114233"
    },
    {
      "type": "Feature",
      "properties": {
        "id": "114288",
        "title": "崇德盈",
        "address": "花蓮縣秀林鄉崇德95-6號",
        "marker-color": "#01ac50"
      },
      "geometry": {
        "coordinates": [
          121.650659,
          24.156835
        ],
        "type": "Point"
      },
      "id": "114288"
    },
    {
      "type": "Feature",
      "properties": {
        "id": "114303",
        "title": "生活",
        "address": "台中市南區復興路二段71巷70號1樓及忠明南路730巷17號1樓",
        "marker-color": "#01ac50"
      },
      "geometry": {
        "coordinates": [
          120.658755,
          24.123619
        ],
        "type": "Point"
      },
      "id": "114303"
    },
    {
      "type": "Feature",
      "properties": {
        "id": "114369",
        "title": "天佑",
        "address": "台中市西屯區中工二路196號198號1樓",
        "marker-color": "#01ac50"
      },
      "geometry": {
        "coordinates": [
          120.615644747451,
          24.1764728987819
        ],
        "type": "Point"
      },
      "id": "114369"
    },
    {
      "type": "Feature",
      "properties": {
        "id": "114510",
        "title": "松錦",
        "address": "台北市中山區松江路295號295-1號1樓",
        "marker-color": "#01ac50"
      },
      "geometry": {
        "coordinates": [
          121.533375,
          25.061017
        ],
        "type": "Point"
      },
      "id": "114510"
    },
    {
      "type": "Feature",
      "properties": {
        "id": "114532",
        "title": "白河",
        "address": "台南市白河區永安里17鄰國泰路101號",
        "marker-color": "#01ac50"
      },
      "geometry": {
        "coordinates": [
          120.413771,
          23.347435
        ],
        "type": "Point"
      },
      "id": "114532"
    },
    {
      "type": "Feature",
      "properties": {
        "id": "114554",
        "title": "敦北",
        "address": "台北市松山區敦化北路149號1樓",
        "marker-color": "#01ac50"
      },
      "geometry": {
        "coordinates": [
          121.549585391761,
          25.0540749604227
        ],
        "type": "Point"
      },
      "id": "114554"
    },
    {
      "type": "Feature",
      "properties": {
        "id": "114587",
        "title": "太保",
        "address": "嘉義縣太保市後潭里後潭408-7號408-8號一樓",
        "marker-color": "#01ac50"
      },
      "geometry": {
        "coordinates": [
          120.343808,
          23.452032
        ],
        "type": "Point"
      },
      "id": "114587"
    },
    {
      "type": "Feature",
      "properties": {
        "id": "114602",
        "title": "港后",
        "address": "高雄市小港區平和路156號",
        "marker-color": "#01ac50"
      },
      "geometry": {
        "coordinates": [
          120.33213461678099,
          22.5673552817357
        ],
        "type": "Point"
      },
      "id": "114602"
    },
    {
      "type": "Feature",
      "properties": {
        "id": "114624",
        "title": "佳積",
        "address": "台中市大雅區科雅六路1號",
        "marker-color": "#01ac50"
      },
      "geometry": {
        "coordinates": [
          120.615317,
          24.21266
        ],
        "type": "Point"
      },
      "id": "114624"
    },
    {
      "type": "Feature",
      "properties": {
        "id": "114657",
        "title": "聖武",
        "address": "新北市中和區新生街48號50號1樓",
        "marker-color": "#01ac50"
      },
      "geometry": {
        "coordinates": [
          121.483214,
          25.003099
        ],
        "type": "Point"
      },
      "id": "114657"
    },
    {
      "type": "Feature",
      "properties": {
        "id": "114668",
        "title": "敦禾",
        "address": "台北市大安區敦化南路二段265巷6號1樓",
        "marker-color": "#01ac50"
      },
      "geometry": {
        "coordinates": [
          121.54957439079601,
          25.025447860453
        ],
        "type": "Point"
      },
      "id": "114668"
    },
    {
      "type": "Feature",
      "properties": {
        "id": "114680",
        "title": "恆吉",
        "address": "南投縣埔里鎮南興街172號",
        "marker-color": "#01ac50"
      },
      "geometry": {
        "coordinates": [
          120.966143,
          23.962238
        ],
        "type": "Point"
      },
      "id": "114680"
    },
    {
      "type": "Feature",
      "properties": {
        "id": "114691",
        "title": "環太",
        "address": "台中市大雅區雅環路一段330號",
        "marker-color": "#01ac50"
      },
      "geometry": {
        "coordinates": [
          120.653693,
          24.222856
        ],
        "type": "Point"
      },
      "id": "114691"
    },
    {
      "type": "Feature",
      "properties": {
        "id": "114705",
        "title": "鹽生",
        "address": "台南市鹽水區南門路1號",
        "marker-color": "#01ac50"
      },
      "geometry": {
        "coordinates": [
          120.266878,
          23.316589
        ],
        "type": "Point"
      },
      "id": "114705"
    },
    {
      "type": "Feature",
      "properties": {
        "id": "114727",
        "title": "同榮",
        "address": "台中市北屯區同榮路161號1樓",
        "marker-color": "#01ac50"
      },
      "geometry": {
        "coordinates": [
          120.661913,
          24.195911
        ],
        "type": "Point"
      },
      "id": "114727"
    },
    {
      "type": "Feature",
      "properties": {
        "id": "114772",
        "title": "環金",
        "address": "台北市內湖區環山路二段81號83號1樓",
        "marker-color": "#01ac50"
      },
      "geometry": {
        "coordinates": [
          121.57500941136301,
          25.085048068160702
        ],
        "type": "Point"
      },
      "id": "114772"
    },
    {
      "type": "Feature",
      "properties": {
        "id": "114808",
        "title": "晟安",
        "address": "雲林縣莿桐鄉饒平村饒平路2之2號",
        "marker-color": "#01ac50"
      },
      "geometry": {
        "coordinates": [
          120.521632,
          23.777093
        ],
        "type": "Point"
      },
      "id": "114808"
    },
    {
      "type": "Feature",
      "properties": {
        "id": "115823",
        "title": "雅盛",
        "address": "新北市板橋區漢生東路181號183號1樓",
        "marker-color": "#01ac50"
      },
      "geometry": {
        "coordinates": [
          121.469764,
          25.011785
        ],
        "type": "Point"
      },
      "id": "115823"
    },
    {
      "type": "Feature",
      "properties": {
        "id": "115856",
        "title": "麗景",
        "address": "高雄市楠梓區清豐里旗楠路891號1樓",
        "marker-color": "#01ac50"
      },
      "geometry": {
        "coordinates": [
          120.338781,
          22.742164
        ],
        "type": "Point"
      },
      "id": "115856"
    },
    {
      "type": "Feature",
      "properties": {
        "id": "115867",
        "title": "鑫正發",
        "address": "苗栗縣苗栗市正發路196號",
        "marker-color": "#01ac50"
      },
      "geometry": {
        "coordinates": [
          120.81607,
          24.569354
        ],
        "type": "Point"
      },
      "id": "115867"
    },
    {
      "type": "Feature",
      "properties": {
        "id": "115878",
        "title": "新台西",
        "address": "雲林縣台西鄉海南村民族路16-7號1樓",
        "marker-color": "#01ac50"
      },
      "geometry": {
        "coordinates": [
          120.19831,
          23.699471
        ],
        "type": "Point"
      },
      "id": "115878"
    },
    {
      "type": "Feature",
      "properties": {
        "id": "115889",
        "title": "武漢",
        "address": "高雄市苓雅區武漢街72號",
        "marker-color": "#01ac50"
      },
      "geometry": {
        "coordinates": [
          120.328088612456,
          22.6207974679729
        ],
        "type": "Point"
      },
      "id": "115889"
    },
    {
      "type": "Feature",
      "properties": {
        "id": "115890",
        "title": "功湖",
        "address": "彰化縣芳苑鄉建平村二溪路草二段372號",
        "marker-color": "#01ac50"
      },
      "geometry": {
        "coordinates": [
          120.382051,
          23.956321
        ],
        "type": "Point"
      },
      "id": "115890"
    },
    {
      "type": "Feature",
      "properties": {
        "id": "115904",
        "title": "元隆",
        "address": "高雄市三民區正興里建元路58號1及2樓",
        "marker-color": "#01ac50"
      },
      "geometry": {
        "coordinates": [
          120.317678605302,
          22.6466945580554
        ],
        "type": "Point"
      },
      "id": "115904"
    },
    {
      "type": "Feature",
      "properties": {
        "id": "115915",
        "title": "新楓港",
        "address": "屏東縣枋山鄉楓港村舊庄路51之2號3號4號",
        "marker-color": "#01ac50"
      },
      "geometry": {
        "coordinates": [
          120.689396,
          22.199013
        ],
        "type": "Point"
      },
      "id": "115915"
    },
    {
      "type": "Feature",
      "properties": {
        "id": "115926",
        "title": "航發",
        "address": "台中市西屯區河南路二段242號",
        "marker-color": "#01ac50"
      },
      "geometry": {
        "coordinates": [
          120.650952770861,
          24.1762148982321
        ],
        "type": "Point"
      },
      "id": "115926"
    },
    {
      "type": "Feature",
      "properties": {
        "id": "115959",
        "title": "昇隆",
        "address": "台北市大安區敦化南路二段238號",
        "marker-color": "#01ac50"
      },
      "geometry": {
        "coordinates": [
          121.548273,
          25.021004
        ],
        "type": "Point"
      },
      "id": "115959"
    },
    {
      "type": "Feature",
      "properties": {
        "id": "115960",
        "title": "臨廣",
        "address": "高雄市前鎮區新生路248-45號",
        "marker-color": "#01ac50"
      },
      "geometry": {
        "coordinates": [
          120.319304,
          22.576587
        ],
        "type": "Point"
      },
      "id": "115960"
    },
    {
      "type": "Feature",
      "properties": {
        "id": "115971",
        "title": "廣興",
        "address": "桃園市平鎮區忠孝路69號及廣東段305號306號",
        "marker-color": "#01ac50"
      },
      "geometry": {
        "coordinates": [
          121.21293714920101,
          24.954545616489398
        ],
        "type": "Point"
      },
      "id": "115971"
    },
    {
      "type": "Feature",
      "properties": {
        "id": "116000",
        "title": "鉅晶",
        "address": "新竹市東區力行一路18號4樓",
        "marker-color": "#01ac50"
      },
      "geometry": {
        "coordinates": [
          121.015846,
          24.76964
        ],
        "type": "Point"
      },
      "id": "116000"
    },
    {
      "type": "Feature",
      "properties": {
        "id": "116011",
        "title": "海寮",
        "address": "台南市安定區海寮里海寮街8號",
        "marker-color": "#01ac50"
      },
      "geometry": {
        "coordinates": [
          120.209689,
          23.096525
        ],
        "type": "Point"
      },
      "id": "116011"
    },
    {
      "type": "Feature",
      "properties": {
        "id": "116044",
        "title": "明福",
        "address": "桃園市八德區大明街105號107號",
        "marker-color": "#01ac50"
      },
      "geometry": {
        "coordinates": [
          121.299088,
          24.969057
        ],
        "type": "Point"
      },
      "id": "116044"
    },
    {
      "type": "Feature",
      "properties": {
        "id": "116055",
        "title": "青埔",
        "address": "桃園市中壢區青昇路257號1樓",
        "marker-color": "#01ac50"
      },
      "geometry": {
        "coordinates": [
          121.220012,
          25.015222
        ],
        "type": "Point"
      },
      "id": "116055"
    },
    {
      "type": "Feature",
      "properties": {
        "id": "116169",
        "title": "竹南和興",
        "address": "苗栗縣竹南鎮大埔里和興路191-1號",
        "marker-color": "#01ac50"
      },
      "geometry": {
        "coordinates": [
          120.883535,
          24.707526
        ],
        "type": "Point"
      },
      "id": "116169"
    },
    {
      "type": "Feature",
      "properties": {
        "id": "116181",
        "title": "灣中",
        "address": "台南市永康區大灣路62號",
        "marker-color": "#01ac50"
      },
      "geometry": {
        "coordinates": [
          120.270806,
          23.012069
        ],
        "type": "Point"
      },
      "id": "116181"
    },
    {
      "type": "Feature",
      "properties": {
        "id": "116206",
        "title": "金冠",
        "address": "金門縣金湖鎮環島南路湖前段2號4號",
        "marker-color": "#01ac50"
      },
      "geometry": {
        "coordinates": [
          118.409686,
          24.436164
        ],
        "type": "Point"
      },
      "id": "116206"
    },
    {
      "type": "Feature",
      "properties": {
        "id": "116262",
        "title": "精城",
        "address": "嘉義市東區圳頭里林森東路720號",
        "marker-color": "#01ac50"
      },
      "geometry": {
        "coordinates": [
          120.477152,
          23.492306
        ],
        "type": "Point"
      },
      "id": "116262"
    },
    {
      "type": "Feature",
      "properties": {
        "id": "116354",
        "title": "玉明",
        "address": "花蓮縣玉里鎮泰昌里中山路二段135號",
        "marker-color": "#01ac50"
      },
      "geometry": {
        "coordinates": [
          121.314185,
          23.335289
        ],
        "type": "Point"
      },
      "id": "116354"
    },
    {
      "type": "Feature",
      "properties": {
        "id": "116413",
        "title": "興玉",
        "address": "花蓮縣玉里鎮興國路二段23號",
        "marker-color": "#01ac50"
      },
      "geometry": {
        "coordinates": [
          121.320029,
          23.336375
        ],
        "type": "Point"
      },
      "id": "116413"
    },
    {
      "type": "Feature",
      "properties": {
        "id": "116479",
        "title": "榮興",
        "address": "桃園市八德區榮興路1139號",
        "marker-color": "#01ac50"
      },
      "geometry": {
        "coordinates": [
          121.306119,
          24.937122
        ],
        "type": "Point"
      },
      "id": "116479"
    },
    {
      "type": "Feature",
      "properties": {
        "id": "116480",
        "title": "豪麥",
        "address": "苗栗縣卓蘭鎮中山路48號之4",
        "marker-color": "#01ac50"
      },
      "geometry": {
        "coordinates": [
          120.827783,
          24.311058
        ],
        "type": "Point"
      },
      "id": "116480"
    },
    {
      "type": "Feature",
      "properties": {
        "id": "116505",
        "title": "弘光",
        "address": "台中市沙鹿區晉江里台灣大道六段1018號",
        "marker-color": "#01ac50"
      },
      "geometry": {
        "coordinates": [
          120.582532,
          24.218331
        ],
        "type": "Point"
      },
      "id": "116505"
    },
    {
      "type": "Feature",
      "properties": {
        "id": "116538",
        "title": "湯旺",
        "address": "新北市三重區重新路五段609巷2之3號1樓",
        "marker-color": "#01ac50"
      },
      "geometry": {
        "coordinates": [
          121.467991,
          25.045631
        ],
        "type": "Point"
      },
      "id": "116538"
    },
    {
      "type": "Feature",
      "properties": {
        "id": "116594",
        "title": "佳辰",
        "address": "新北市樹林區佳園路三段488號",
        "marker-color": "#01ac50"
      },
      "geometry": {
        "coordinates": [
          121.38244,
          24.944283
        ],
        "type": "Point"
      },
      "id": "116594"
    },
    {
      "type": "Feature",
      "properties": {
        "id": "116608",
        "title": "觀亭",
        "address": "高雄市內門區觀亭里南屏路78號",
        "marker-color": "#01ac50"
      },
      "geometry": {
        "coordinates": [
          120.456342,
          22.919324
        ],
        "type": "Point"
      },
      "id": "116608"
    },
    {
      "type": "Feature",
      "properties": {
        "id": "116620",
        "title": "歡雅",
        "address": "台南市鹽水區歡雅里26號",
        "marker-color": "#01ac50"
      },
      "geometry": {
        "coordinates": [
          120.241721,
          23.292312
        ],
        "type": "Point"
      },
      "id": "116620"
    },
    {
      "type": "Feature",
      "properties": {
        "id": "116675",
        "title": "健華",
        "address": "新北市三重區忠孝路二段63號",
        "marker-color": "#01ac50"
      },
      "geometry": {
        "coordinates": [
          121.484944,
          25.070655
        ],
        "type": "Point"
      },
      "id": "116675"
    },
    {
      "type": "Feature",
      "properties": {
        "id": "116697",
        "title": "御昇",
        "address": "新北市樹林區佳園路二段34號1樓",
        "marker-color": "#01ac50"
      },
      "geometry": {
        "coordinates": [
          121.39156,
          24.962754
        ],
        "type": "Point"
      },
      "id": "116697"
    },
    {
      "type": "Feature",
      "properties": {
        "id": "116734",
        "title": "鄭子寮",
        "address": "台南市北區成德里38鄰北成路442號",
        "marker-color": "#01ac50"
      },
      "geometry": {
        "coordinates": [
          120.201201,
          23.019016
        ],
        "type": "Point"
      },
      "id": "116734"
    },
    {
      "type": "Feature",
      "properties": {
        "id": "116745",
        "title": "義發",
        "address": "高雄市大寮區義發路7號",
        "marker-color": "#01ac50"
      },
      "geometry": {
        "coordinates": [
          120.385824,
          22.617744
        ],
        "type": "Point"
      },
      "id": "116745"
    },
    {
      "type": "Feature",
      "properties": {
        "id": "116756",
        "title": "新甲后",
        "address": "台中市外埔區甲后路三段1025號",
        "marker-color": "#01ac50"
      },
      "geometry": {
        "coordinates": [
          120.653318,
          24.331604
        ],
        "type": "Point"
      },
      "id": "116756"
    },
    {
      "type": "Feature",
      "properties": {
        "id": "116767",
        "title": "口庄",
        "address": "彰化縣花壇鄉中山路二段649號651號",
        "marker-color": "#01ac50"
      },
      "geometry": {
        "coordinates": [
          120.533483,
          24.044797
        ],
        "type": "Point"
      },
      "id": "116767"
    },
    {
      "type": "Feature",
      "properties": {
        "id": "116789",
        "title": "鎮海",
        "address": "屏東縣東港鎮鎮海里鎮海路1-100號",
        "marker-color": "#01ac50"
      },
      "geometry": {
        "coordinates": [
          120.443898,
          22.462658
        ],
        "type": "Point"
      },
      "id": "116789"
    },
    {
      "type": "Feature",
      "properties": {
        "id": "116790",
        "title": "甜心",
        "address": "台中市豐原區圓環東路168號",
        "marker-color": "#01ac50"
      },
      "geometry": {
        "coordinates": [
          120.719238,
          24.243171
        ],
        "type": "Point"
      },
      "id": "116790"
    },
    {
      "type": "Feature",
      "properties": {
        "id": "116826",
        "title": "太子宮",
        "address": "台南市新營區太北里太子宮142-34號",
        "marker-color": "#01ac50"
      },
      "geometry": {
        "coordinates": [
          120.273624,
          23.294563
        ],
        "type": "Point"
      },
      "id": "116826"
    },
    {
      "type": "Feature",
      "properties": {
        "id": "117025",
        "title": "鳳南",
        "address": "高雄市鳳山區二甲里鳳南一路25號27號",
        "marker-color": "#01ac50"
      },
      "geometry": {
        "coordinates": [
          120.340605,
          22.593517
        ],
        "type": "Point"
      },
      "id": "117025"
    },
    {
      "type": "Feature",
      "properties": {
        "id": "117140",
        "title": "德信",
        "address": "基隆市信義區東信路50號52號",
        "marker-color": "#01ac50"
      },
      "geometry": {
        "coordinates": [
          121.76788,
          25.127919
        ],
        "type": "Point"
      },
      "id": "117140"
    },
    {
      "type": "Feature",
      "properties": {
        "id": "117151",
        "title": "廣瀨",
        "address": "桃園市龜山區忠義路二段13號",
        "marker-color": "#01ac50"
      },
      "geometry": {
        "coordinates": [
          121.353236,
          25.039133
        ],
        "type": "Point"
      },
      "id": "117151"
    },
    {
      "type": "Feature",
      "properties": {
        "id": "117173",
        "title": "嘉科大",
        "address": "台南市仁德區保安里二仁路一段60號",
        "marker-color": "#01ac50"
      },
      "geometry": {
        "coordinates": [
          120.225781,
          22.92054
        ],
        "type": "Point"
      },
      "id": "117173"
    },
    {
      "type": "Feature",
      "properties": {
        "id": "117520",
        "title": "東都",
        "address": "台南市北區成功路140號",
        "marker-color": "#01ac50"
      },
      "geometry": {
        "coordinates": [
          120.204669,
          22.998629
        ],
        "type": "Point"
      },
      "id": "117520"
    },
    {
      "type": "Feature",
      "properties": {
        "id": "117726",
        "title": "宏明",
        "address": "高雄市三民區本和里大福街211號213號",
        "marker-color": "#01ac50"
      },
      "geometry": {
        "coordinates": [
          120.326108,
          22.657639
        ],
        "type": "Point"
      },
      "id": "117726"
    },
    {
      "type": "Feature",
      "properties": {
        "id": "117748",
        "title": "富帆",
        "address": "台北市萬華區華中里萬大路464號一樓",
        "marker-color": "#01ac50"
      },
      "geometry": {
        "coordinates": [
          121.497608,
          25.020124
        ],
        "type": "Point"
      },
      "id": "117748"
    },
    {
      "type": "Feature",
      "properties": {
        "id": "117807",
        "title": "新森榮",
        "address": "台南市中西區成功路451號453號",
        "marker-color": "#01ac50"
      },
      "geometry": {
        "coordinates": [
          120.196569516702,
          23.0010427908614
        ],
        "type": "Point"
      },
      "id": "117807"
    },
    {
      "type": "Feature",
      "properties": {
        "id": "117830",
        "title": "興春",
        "address": "台中市南屯區永春東路96號",
        "marker-color": "#01ac50"
      },
      "geometry": {
        "coordinates": [
          120.653175,
          24.135096
        ],
        "type": "Point"
      },
      "id": "117830"
    },
    {
      "type": "Feature",
      "properties": {
        "id": "117896",
        "title": "深澳坑",
        "address": "基隆市信義區深澳坑路2-6號2-7號",
        "marker-color": "#01ac50"
      },
      "geometry": {
        "coordinates": [
          121.771275,
          25.137008
        ],
        "type": "Point"
      },
      "id": "117896"
    },
    {
      "type": "Feature",
      "properties": {
        "id": "117911",
        "title": "樂民",
        "address": "高雄市楠梓區加昌里壽民路58號",
        "marker-color": "#01ac50"
      },
      "geometry": {
        "coordinates": [
          120.295929,
          22.721452
        ],
        "type": "Point"
      },
      "id": "117911"
    },
    {
      "type": "Feature",
      "properties": {
        "id": "117966",
        "title": "匯和",
        "address": "新北市三重區三和路四段390巷2號",
        "marker-color": "#01ac50"
      },
      "geometry": {
        "coordinates": [
          121.481901,
          25.078971
        ],
        "type": "Point"
      },
      "id": "117966"
    },
    {
      "type": "Feature",
      "properties": {
        "id": "118028",
        "title": "苗鑫",
        "address": "苗栗縣苗栗市國華路1092號",
        "marker-color": "#01ac50"
      },
      "geometry": {
        "coordinates": [
          120.813589,
          24.564127
        ],
        "type": "Point"
      },
      "id": "118028"
    },
    {
      "type": "Feature",
      "properties": {
        "id": "118338",
        "title": "豐生",
        "address": "台南市歸仁區看東里中山路一段305號",
        "marker-color": "#01ac50"
      },
      "geometry": {
        "coordinates": [
          120.302584,
          22.965649
        ],
        "type": "Point"
      },
      "id": "118338"
    },
    {
      "type": "Feature",
      "properties": {
        "id": "118349",
        "title": "新板橋",
        "address": "新北市板橋區文化路一段135號",
        "marker-color": "#01ac50"
      },
      "geometry": {
        "coordinates": [
          121.462031,
          25.01521
        ],
        "type": "Point"
      },
      "id": "118349"
    },
    {
      "type": "Feature",
      "properties": {
        "id": "118408",
        "title": "重運",
        "address": "新北市三重區三和路四段111-1及111-2號1樓",
        "marker-color": "#01ac50"
      },
      "geometry": {
        "coordinates": [
          121.485704,
          25.077452
        ],
        "type": "Point"
      },
      "id": "118408"
    },
    {
      "type": "Feature",
      "properties": {
        "id": "118419",
        "title": "聖心",
        "address": "基隆市中山區西定路38號40號",
        "marker-color": "#01ac50"
      },
      "geometry": {
        "coordinates": [
          121.735501532024,
          25.1324912305744
        ],
        "type": "Point"
      },
      "id": "118419"
    },
    {
      "type": "Feature",
      "properties": {
        "id": "118420",
        "title": "鑫重寧",
        "address": "台北市中正區寧波西街86號1樓",
        "marker-color": "#01ac50"
      },
      "geometry": {
        "coordinates": [
          121.515924366567,
          25.029933876647
        ],
        "type": "Point"
      },
      "id": "118420"
    },
    {
      "type": "Feature",
      "properties": {
        "id": "118475",
        "title": "俊興",
        "address": "新北市樹林區三俊街172號1樓",
        "marker-color": "#01ac50"
      },
      "geometry": {
        "coordinates": [
          121.417667,
          25.015295
        ],
        "type": "Point"
      },
      "id": "118475"
    },
    {
      "type": "Feature",
      "properties": {
        "id": "118497",
        "title": "中川",
        "address": "台中市西屯區台灣大道二段938號940號",
        "marker-color": "#01ac50"
      },
      "geometry": {
        "coordinates": [
          120.651355,
          24.162031
        ],
        "type": "Point"
      },
      "id": "118497"
    },
    {
      "type": "Feature",
      "properties": {
        "id": "118512",
        "title": "建茗",
        "address": "新北市板橋區四川路一段104號",
        "marker-color": "#01ac50"
      },
      "geometry": {
        "coordinates": [
          121.45969,
          25.004568
        ],
        "type": "Point"
      },
      "id": "118512"
    },
    {
      "type": "Feature",
      "properties": {
        "id": "118523",
        "title": "和氣",
        "address": "桃園市大溪區仁和路二段51號1樓",
        "marker-color": "#01ac50"
      },
      "geometry": {
        "coordinates": [
          121.268738,
          24.902875
        ],
        "type": "Point"
      },
      "id": "118523"
    },
    {
      "type": "Feature",
      "properties": {
        "id": "118545",
        "title": "興學",
        "address": "台中市南區學府路64號",
        "marker-color": "#01ac50"
      },
      "geometry": {
        "coordinates": [
          120.675271,
          24.124586
        ],
        "type": "Point"
      },
      "id": "118545"
    },
    {
      "type": "Feature",
      "properties": {
        "id": "118589",
        "title": "關東",
        "address": "新竹市東區光復路一段187號189號",
        "marker-color": "#01ac50"
      },
      "geometry": {
        "coordinates": [
          121.021947,
          24.7816
        ],
        "type": "Point"
      },
      "id": "118589"
    },
    {
      "type": "Feature",
      "properties": {
        "id": "118648",
        "title": "華勛",
        "address": "桃園市中壢區華勛街191號193號",
        "marker-color": "#01ac50"
      },
      "geometry": {
        "coordinates": [
          121.260733,
          24.949168
        ],
        "type": "Point"
      },
      "id": "118648"
    },
    {
      "type": "Feature",
      "properties": {
        "id": "118659",
        "title": "精業",
        "address": "台中市西區精誠路41號之6之7",
        "marker-color": "#01ac50"
      },
      "geometry": {
        "coordinates": [
          120.65523,
          24.153265
        ],
        "type": "Point"
      },
      "id": "118659"
    },
    {
      "type": "Feature",
      "properties": {
        "id": "118660",
        "title": "東城",
        "address": "台南市東區中華東路二段293號",
        "marker-color": "#01ac50"
      },
      "geometry": {
        "coordinates": [
          120.23092,
          22.982551
        ],
        "type": "Point"
      },
      "id": "118660"
    },
    {
      "type": "Feature",
      "properties": {
        "id": "118682",
        "title": "華信",
        "address": "桃園市桃園區成功路一段47號",
        "marker-color": "#01ac50"
      },
      "geometry": {
        "coordinates": [
          121.311345,
          24.992296
        ],
        "type": "Point"
      },
      "id": "118682"
    },
    {
      "type": "Feature",
      "properties": {
        "id": "118693",
        "title": "楊梅",
        "address": "桃園市楊梅區楊新路73號",
        "marker-color": "#01ac50"
      },
      "geometry": {
        "coordinates": [
          121.145564,
          24.91321
        ],
        "type": "Point"
      },
      "id": "118693"
    },
    {
      "type": "Feature",
      "properties": {
        "id": "118730",
        "title": "竹陵",
        "address": "新竹市北區東大路二段174號",
        "marker-color": "#01ac50"
      },
      "geometry": {
        "coordinates": [
          120.965989,
          24.815809
        ],
        "type": "Point"
      },
      "id": "118730"
    },
    {
      "type": "Feature",
      "properties": {
        "id": "118741",
        "title": "新漢北",
        "address": "高雄市小港區漢民路132號134號1樓",
        "marker-color": "#01ac50"
      },
      "geometry": {
        "coordinates": [
          120.350705,
          22.56408
        ],
        "type": "Point"
      },
      "id": "118741"
    },
    {
      "type": "Feature",
      "properties": {
        "id": "118785",
        "title": "忠信",
        "address": "新北市永和區中興街101號",
        "marker-color": "#01ac50"
      },
      "geometry": {
        "coordinates": [
          121.518428,
          25.012237
        ],
        "type": "Point"
      },
      "id": "118785"
    },
    {
      "type": "Feature",
      "properties": {
        "id": "118796",
        "title": "新國光",
        "address": "台中市南區國光路82及84號;愛國街69號",
        "marker-color": "#01ac50"
      },
      "geometry": {
        "coordinates": [
          120.677085,
          24.130574
        ],
        "type": "Point"
      },
      "id": "118796"
    },
    {
      "type": "Feature",
      "properties": {
        "id": "118822",
        "title": "新安可",
        "address": "彰化縣溪湖鎮西環路373號",
        "marker-color": "#01ac50"
      },
      "geometry": {
        "coordinates": [
          120.477119,
          23.96103
        ],
        "type": "Point"
      },
      "id": "118822"
    },
    {
      "type": "Feature",
      "properties": {
        "id": "118866",
        "title": "新壯觀",
        "address": "基隆市安樂區麥金路64號1樓",
        "marker-color": "#01ac50"
      },
      "geometry": {
        "coordinates": [
          121.726471524553,
          25.1165791752176
        ],
        "type": "Point"
      },
      "id": "118866"
    },
    {
      "type": "Feature",
      "properties": {
        "id": "118899",
        "title": "掬華",
        "address": "台北市中正區中華路二段407號",
        "marker-color": "#01ac50"
      },
      "geometry": {
        "coordinates": [
          121.508221360879,
          25.026082863314098
        ],
        "type": "Point"
      },
      "id": "118899"
    },
    {
      "type": "Feature",
      "properties": {
        "id": "118903",
        "title": "峰里",
        "address": "桃園市大溪區復興路二段782號786號",
        "marker-color": "#01ac50"
      },
      "geometry": {
        "coordinates": [
          121.330373,
          24.832002
        ],
        "type": "Point"
      },
      "id": "118903"
    },