{
  "type": "FeatureCollection",
  "title": "Familymart",
  "features": [
    {
      "type": "Feature",
      "properties": {
        "id": "002353",
        "title": "全家淡水登峰店",
        "address": "新北市淡水區中正東路二段２７號２樓",
        "post": "251",
        "all": "SWEETPOTATO,WiFi,icecream,Rest,oneice,twoice,COFFEEDeliver,Preorder,SCoffee,Meatballs,CS",
        "marker-color": "#01ac50"
      },
      "geometry": {
        "coordinates": [
          121.45945259,
          25.15678644
        ],
        "type": "Point"
      },
      "id": "002353"
    },
    {
      "type": "Feature",
      "properties": {
        "id": "002816",
        "title": "全家板橋板農店",
        "address": "新北市板橋區府中路２９—１號１樓",
        "post": "220",
        "all": "SWEETPOTATO,WiFi,icecream,Rest,oneice,twoice,COFFEEDeliver,SUNMAI,Preorder,Rpotato,SCoffee,Meatballs,hada,CS",
        "marker-color": "#01ac50"
      },
      "geometry": {
        "coordinates": [
          121.458585,
          25.008431
        ],
        "type": "Point"
      },
      "id": "002816"
    },
    {
      "type": "Feature",
      "properties": {
        "id": "003244",
        "title": "全家台中後龍店",
        "address": "台中市西區後龍街５８號民權路３０２號",
        "post": "403",
        "all": "SWEETPOTATO,WiFi,icecream,Rest,oneice,twoice,COFFEEDeliver,Preorder,SCoffee,Meatballs",
        "marker-color": "#01ac50"
      },
      "geometry": {
        "coordinates": [
          120.670059,
          24.147406
        ],
        "type": "Point"
      },
      "id": "003244"
    },
    {
      "type": "Feature",
      "properties": {
        "id": "003564",
        "title": "全家溪湖雙溪店",
        "address": "彰化縣溪湖鎮大竹里彰水路二段７４５號１樓",
        "post": "514",
        "all": "SWEETPOTATO,Smoothie,Photo,WiFi,icecream,Toilet,Rest,oneice,twoice,COFFEEDeliver,Preorder,SCoffee,Meatballs,costco,pet,kit",
        "marker-color": "#01ac50"
      },
      "geometry": {
        "coordinates": [
          120.4804146,
          23.9509479
        ],
        "type": "Point"
      },
      "id": "003564"
    },
    {
      "type": "Feature",
      "properties": {
        "id": "004114",
        "title": "全家台中惠中店",
        "address": "台中市南屯區惠中路三段４６號、４８號、５０號",
        "post": "408",
        "all": "SWEETPOTATO,WiFi,icecream,Toilet,Rest,oneice,twoice,COFFEEDeliver,Preorder,SCoffee,Meatballs",
        "marker-color": "#01ac50"
      },
      "geometry": {
        "coordinates": [
          120.640406,
          24.148619
        ],
        "type": "Point"
      },
      "id": "004114"
    },
    {
      "type": "Feature",
      "properties": {
        "id": "005989",
        "title": "全家中賓店",
        "address": "台北市中山區中山里中山北路二段５９之３號１樓",
        "post": "104",
        "all": "SWEETPOTATO,Smoothie,WiFi,icecream,oneice,twoice,COFFEEDeliver,Preorder,Rpotato,SCoffee,Meatballs,dessert",
        "marker-color": "#01ac50"
      },
      "geometry": {
        "coordinates": [
          121.522976,
          25.056037
        ],
        "type": "Point"
      },
      "id": "005989"
    },
    {
      "type": "Feature",
      "properties": {
        "id": "008854",
        "title": "全家台中儷晶店",
        "address": "台中市西屯區青海路二段１５３號",
        "post": "407",
        "all": "SWEETPOTATO,WiFi,icecream,Rest,veg,oneice,COFFEEDeliver,SUNMAI,Preorder,Rpotato,SCoffee,Meatballs",
        "marker-color": "#01ac50"
      },
      "geometry": {
        "coordinates": [
          120.646681,
          24.168873
        ],
        "type": "Point"
      },
      "id": "008854"
    },
    {
      "type": "Feature",
      "properties": {
        "id": "009159",
        "title": "全家中和橋安店",
        "address": "新北市中和區橋和路１２０號",
        "post": "235",
        "all": "SWEETPOTATO,Photo,WiFi,Rest,COFFEEDeliver,Preorder,SCoffee,CS",
        "marker-color": "#01ac50"
      },
      "geometry": {
        "coordinates": [
          121.492203,
          25.005742
        ],
        "type": "Point"
      },
      "id": "009159"
    },
    {
      "type": "Feature",
      "properties": {
        "id": "010358",
        "title": "全家胡適店",
        "address": "台北市南港區舊莊街一段３巷１６號",
        "post": "115",
        "all": "SWEETPOTATO,WiFi,Preorder",
        "marker-color": "#01ac50"
      },
      "geometry": {
        "coordinates": [
          121.618172,
          25.042341
        ],
        "type": "Point"
      },
      "id": "010358"
    },
    {
      "type": "Feature",
      "properties": {
        "id": "010379",
        "title": "全家板橋金巨蛋店",
        "address": "新北市板橋區民生路二段２５０號１樓及ｂ１",
        "post": "220",
        "all": "SWEETPOTATO,WiFi,Preorder,Meatballs",
        "marker-color": "#01ac50"
      },
      "geometry": {
        "coordinates": [
          121.468481,
          25.023293
        ],
        "type": "Point"
      },
      "id": "010379"
    },
    {
      "type": "Feature",
      "properties": {
        "id": "010459",
        "title": "全家大里順發店",
        "address": "台中市大里區永隆路２０９號壹樓",
        "post": "412",
        "all": "SWEETPOTATO,WiFi,icecream,Toilet,Rest,oneice,twoice,COFFEEDeliver,Preorder,SCoffee,Meatballs,intl,costco,wash,kit",
        "marker-color": "#01ac50"
      },
      "geometry": {
        "coordinates": [
          120.676509,
          24.107962
        ],
        "type": "Point"
      },
      "id": "010459"
    },
    {
      "type": "Feature",
      "properties": {
        "id": "010629",
        "title": "全家汐止康寧店",
        "address": "新北市汐止區康寧街１６９巷２３號１樓",
        "post": "221",
        "all": "SWEETPOTATO,WiFi,Rest,Preorder,SCoffee,Meatballs,CS",
        "marker-color": "#01ac50"
      },
      "geometry": {
        "coordinates": [
          121.622686,
          25.068253
        ],
        "type": "Point"
      },
      "id": "010629"
    },
    {
      "type": "Feature",
      "properties": {
        "id": "010822",
        "title": "全家基隆經國店",
        "address": "基隆市中山區復興路３３６－１號",
        "post": "203",
        "all": "SWEETPOTATO,Photo,WiFi,icecream,Toilet,Rest,oneice,twoice,COFFEEDeliver,Preorder,Rpotato,Meatballs,hada,CS",
        "marker-color": "#01ac50"
      },
      "geometry": {
        "coordinates": [
          121.727983,
          25.150676
        ],
        "type": "Point"
      },
      "id": "010822"
    },
    {
      "type": "Feature",
      "properties": {
        "id": "010836",
        "title": "全家高雄新樂店",
        "address": "高雄市鹽埕區新樂街２３８號",
        "post": "803",
        "all": "SWEETPOTATO,Photo,WiFi,icecream,Toilet,Rest,oneice,twoice,COFFEEDeliver,SUNMAI,Preorder,SCoffee,costco,hada",
        "marker-color": "#01ac50"
      },
      "geometry": {
        "coordinates": [
          120.28050471,
          22.62636235
        ],
        "type": "Point"
      },
      "id": "010836"
    },
    {
      "type": "Feature",
      "properties": {
        "id": "010855",
        "title": "全家永和保安店",
        "address": "新北市永和區永貞路３８７號",
        "post": "234",
        "all": "SWEETPOTATO,WiFi,veg,Preorder,SCoffee",
        "marker-color": "#01ac50"
      },
      "geometry": {
        "coordinates": [
          121.507929,
          25.008664
        ],
        "type": "Point"
      },
      "id": "010855"
    },
    {
      "type": "Feature",
      "properties": {
        "id": "010926",
        "title": "全家新店民德店",
        "address": "新北市新店區民族路６號",
        "post": "231",
        "all": "icecream,Rest,oneice,Preorder",
        "marker-color": "#01ac50"
      },
      "geometry": {
        "coordinates": [
          121.541739,
          24.978996
        ],
        "type": "Point"
      },
      "id": "010926"
    },
    {
      "type": "Feature",
      "properties": {
        "id": "010980",
        "title": "全家北鑫店",
        "address": "台北市南港區中坡南路１５號",
        "post": "115",
        "all": "SWEETPOTATO,WiFi,Preorder,SCoffee,CS",
        "marker-color": "#01ac50"
      },
      "geometry": {
        "coordinates": [
          121.582921,
          25.04349
        ],
        "type": "Point"
      },
      "id": "010980"
    },
    {
      "type": "Feature",
      "properties": {
        "id": "011059",
        "title": "全家蘇澳車頭店",
        "address": "宜蘭縣蘇澳鎮蘇南里中山路一段６３號一樓",
        "post": "270",
        "all": "WiFi,Rest,Preorder",
        "marker-color": "#01ac50"
      },
      "geometry": {
        "coordinates": [
          121.851526,
          24.596011
        ],
        "type": "Point"
      },
      "id": "011059"
    },
    {
      "type": "Feature",
      "properties": {
        "id": "011177",
        "title": "全家永和騎士店",
        "address": "新北市永和區民權路５３號１樓",
        "post": "234",
        "all": "SWEETPOTATO,Photo,WiFi,icecream,Rest,oneice,Preorder,Meatballs,hada,CS",
        "marker-color": "#01ac50"
      },
      "geometry": {
        "coordinates": [
          121.520006,
          24.996832
        ],
        "type": "Point"
      },
      "id": "011177"
    },
    {
      "type": "Feature",
      "properties": {
        "id": "011273",
        "title": "全家松醫店",
        "address": "台北市松山區東光里健康路１５８號",
        "post": "105",
        "all": "SWEETPOTATO,Photo,WiFi,icecream,Toilet,Rest,oneice,Preorder,SCoffee,Meatballs,CS",
        "marker-color": "#01ac50"
      },
      "geometry": {
        "coordinates": [
          121.557897,
          25.053463
        ],
        "type": "Point"
      },
      "id": "011273"
    },
    {
      "type": "Feature",
      "properties": {
        "id": "011344",
        "title": "全家六甲民生附店",
        "address": "台南市六甲區工研路８號",
        "post": "734",
        "all": "Preorder",
        "marker-color": "#01ac50"
      },
      "geometry": {
        "coordinates": [
          120.370118,
          23.229693
        ],
        "type": "Point"
      },
      "id": "011344"
    },
    {
      "type": "Feature",
      "properties": {
        "id": "011489",
        "title": "全家新營國道南店",
        "address": "臺南市後壁區竹新里新厝６９號",
        "post": "731",
        "all": "SWEETPOTATO,WiFi,icecream,oneice,twoice,COFFEEDeliver,Preorder,SCoffee,Meatballs,hada",
        "marker-color": "#01ac50"
      },
      "geometry": {
        "coordinates": [
          120.312042,
          23.340737
        ],
        "type": "Point"
      },
      "id": "011489"
    },
    {
      "type": "Feature",
      "properties": {
        "id": "011531",
        "title": "全家中和南勢角店",
        "address": "新北市中和區南山路３９９巷１０號１樓",
        "post": "235",
        "all": "SWEETPOTATO,WiFi,Rest,Preorder,hada",
        "marker-color": "#01ac50"
      },
      "geometry": {
        "coordinates": [
          121.507175,
          24.990542
        ],
        "type": "Point"
      },
      "id": "011531"
    },
    {
      "type": "Feature",
      "properties": {
        "id": "011685",
        "title": "全家宜蘭廣鑫店",
        "address": "宜蘭縣冬山鄉廣興路２６７號",
        "post": "269",
        "all": "WiFi,icecream,Parking,Toilet,Rest,oneice,Preorder",
        "marker-color": "#01ac50"
      },
      "geometry": {
        "coordinates": [
          121.747386,
          24.669513
        ],
        "type": "Point"
      },
      "id": "011685"
    },
    {
      "type": "Feature",
      "properties": {
        "id": "011845",
        "title": "全家新竹元村店",
        "address": "新竹市香山區元培街１９７＆１９９號１樓",
        "post": "300",
        "all": "WiFi,Rest,Preorder,Meatballs,hada",
        "marker-color": "#01ac50"
      },
      "geometry": {
        "coordinates": [
          120.931151,
          24.784613
        ],
        "type": "Point"
      },
      "id": "011845"
    },
    {
      "type": "Feature",
      "properties": {
        "id": "011938",
        "title": "全家中和景秀店",
        "address": "新北市中和區景平路７１—２號",
        "post": "235",
        "all": "SWEETPOTATO,WiFi,icecream,Rest,veg,oneice,Preorder,hada",
        "marker-color": "#01ac50"
      },
      "geometry": {
        "coordinates": [
          121.519392,
          24.991359
        ],
        "type": "Point"
      },
      "id": "011938"
    },
    {
      "type": "Feature",
      "properties": {
        "id": "012127",
        "title": "全家宏大店",
        "address": "台北市松山區敦化北路１５５巷３號１樓",
        "post": "105",
        "all": "SWEETPOTATO,Photo,WiFi,Rest,veg,Preorder,SCoffee,hada",
        "marker-color": "#01ac50"
      },
      "geometry": {
        "coordinates": [
          121.549813,
          25.05424
        ],
        "type": "Point"
      },
      "id": "012127"
    },
    {
      "type": "Feature",
      "properties": {
        "id": "012220",
        "title": "全家豐禾店",
        "address": "台北市松山區民生東路三段１３０巷５弄２號",
        "post": "105",
        "all": "SWEETPOTATO,Photo,WiFi,Toilet,Rest,Preorder,SCoffee",
        "marker-color": "#01ac50"
      },
      "geometry": {
        "coordinates": [
          121.546337,
          25.056974
        ],
        "type": "Point"
      },
      "id": "012220"
    },
    {
      "type": "Feature",
      "properties": {
        "id": "012254",
        "title": "全家新竹旺宏店",
        "address": "新竹市東區科學園區力行路１６號",
        "post": "300",
        "all": "SWEETPOTATO,Preorder,SCoffee,Meatballs,hada",
        "marker-color": "#01ac50"
      },
      "geometry": {
        "coordinates": [
          121.023583,
          24.766896
        ],
        "type": "Point"
      },
      "id": "012254"
    },
    {
      "type": "Feature",
      "properties": {
        "id": "012395",
        "title": "全家中和福順店",
        "address": "新北市中和區景平路７０８號",
        "post": "235",
        "all": "SWEETPOTATO,Photo,WiFi,icecream,Rest,oneice,Preorder,CS",
        "marker-color": "#01ac50"
      },
      "geometry": {
        "coordinates": [
          121.496814,
          25.002648
        ],
        "type": "Point"
      },
      "id": "012395"
    },
    {
      "type": "Feature",
      "properties": {
        "id": "012416",
        "title": "全家泰山麗池店",
        "address": "新北市泰山區泰林路二段５１８號",
        "post": "243",
        "all": "SWEETPOTATO,Smoothie,WiFi,Toilet,Rest,Preorder,kit",
        "marker-color": "#01ac50"
      },
      "geometry": {
        "coordinates": [
          121.42414,
          25.063967
        ],
        "type": "Point"
      },
      "id": "012416"
    },
    {
      "type": "Feature",
      "properties": {
        "id": "012442",
        "title": "全家高雄大興店",
        "address": "高雄市三民區大裕路３８號",
        "post": "807",
        "all": "SWEETPOTATO,WiFi,icecream,Toilet,Rest,oneice,twoice,COFFEEDeliver,Preorder,SCoffee,hada",
        "marker-color": "#01ac50"
      },
      "geometry": {
        "coordinates": [
          120.328823,
          22.65415
        ],
        "type": "Point"
      },
      "id": "012442"
    },
    {
      "type": "Feature",
      "properties": {
        "id": "012473",
        "title": "全家新店新陽店",
        "address": "新北市新店區粗坑里花園一路一段２號一樓",
        "post": "231",
        "all": "SWEETPOTATO,WiFi,Rest,veg,Preorder,costco,leezen,kit",
        "marker-color": "#01ac50"
      },
      "geometry": {
        "coordinates": [
          121.550937,
          24.93418
        ],
        "type": "Point"
      },
      "id": "012473"
    },
    {
      "type": "Feature",
      "properties": {
        "id": "012493",
        "title": "全家台中金豹店",
        "address": "台中市西屯區四川一街２６號",
        "post": "407",
        "all": "SWEETPOTATO,WiFi,icecream,Toilet,Rest,oneice,COFFEEDeliver,SUNMAI,Preorder,Meatballs,costco,pet",
        "marker-color": "#01ac50"
      },
      "geometry": {
        "coordinates": [
          120.651399,
          24.163675
        ],
        "type": "Point"
      },
      "id": "012493"
    },
    {
      "type": "Feature",
      "properties": {
        "id": "012565",
        "title": "全家新城嘉新店",
        "address": "花蓮縣新城鄉嘉新村花師街３７號一樓",
        "post": "971",
        "all": "SWEETPOTATO,Smoothie,veg,Preorder,SCoffee,Meatballs",
        "marker-color": "#01ac50"
      },
      "geometry": {
        "coordinates": [
          121.61588625,
          24.0085904
        ],
        "type": "Point"
      },
      "id": "012565"
    },
    {
      "type": "Feature",
      "properties": {
        "id": "012595",
        "title": "全家中埔和興店",
        "address": "嘉義縣中埔鄉和興村中山路五段９４３號",
        "post": "606",
        "all": "SWEETPOTATO,Photo,WiFi,icecream,Toilet,Rest,oneice,Preorder,hada",
        "marker-color": "#01ac50"
      },
      "geometry": {
        "coordinates": [
          120.4597718,
          23.45315835
        ],
        "type": "Point"
      },
      "id": "012595"
    },
    {
      "type": "Feature",
      "properties": {
        "id": "012607",
        "title": "全家中和遠建店",
        "address": "新北市中和區建一路１７６號１樓",
        "post": "235",
        "all": "SWEETPOTATO,WiFi,Rest,Preorder,SCoffee,Meatballs,CS",
        "marker-color": "#01ac50"
      },
      "geometry": {
        "coordinates": [
          121.487778,
          24.997336
        ],
        "type": "Point"
      },
      "id": "012607"
    },
    {
      "type": "Feature",
      "properties": {
        "id": "012657",
        "title": "全家長城店",
        "address": "台北市松山區敦化北路１２０巷８０號",
        "post": "105",
        "all": "SWEETPOTATO,WiFi,Preorder,SCoffee",
        "marker-color": "#01ac50"
      },
      "geometry": {
        "coordinates": [
          121.546151,
          25.054321
        ],
        "type": "Point"
      },
      "id": "012657"
    },
    {
      "type": "Feature",
      "properties": {
        "id": "012726",
        "title": "全家後壁茄苳店",
        "address": "台南市後壁區嘉明里上茄苳１４６之３３號３２號",
        "post": "731",
        "all": "WiFi,Toilet,Rest,Preorder",
        "marker-color": "#01ac50"
      },
      "geometry": {
        "coordinates": [
          120.375775,
          23.388732
        ],
        "type": "Point"
      },
      "id": "012726"
    },
    {
      "type": "Feature",
      "properties": {
        "id": "012731",
        "title": "全家台南金華店",
        "address": "臺南市南區新孝路７２號１樓",
        "post": "702",
        "all": "SWEETPOTATO,WiFi,Rest,COFFEEDeliver,Preorder,SCoffee,kit",
        "marker-color": "#01ac50"
      },
      "geometry": {
        "coordinates": [
          120.189055,
          22.977936
        ],
        "type": "Point"
      },
      "id": "012731"
    },
    {
      "type": "Feature",
      "properties": {
        "id": "012739",
        "title": "全家溪湖再發店",
        "address": "彰化縣溪湖鎮崙子腳路１２２號",
        "post": "514",
        "all": "SWEETPOTATO,WiFi,Toilet,Rest,COFFEEDeliver,Preorder,Meatballs,wash",
        "marker-color": "#01ac50"
      },
      "geometry": {
        "coordinates": [
          120.4853842,
          23.9484609
        ],
        "type": "Point"
      },
      "id": "012739"
    },
    {
      "type": "Feature",
      "properties": {
        "id": "012740",
        "title": "全家新營和平店",
        "address": "台南市新營區和平路４６號",
        "post": "730",
        "all": "SWEETPOTATO,Smoothie,WiFi,Rest,COFFEEDeliver,Preorder",
        "marker-color": "#01ac50"
      },
      "geometry": {
        "coordinates": [
          120.30992,
          23.300295
        ],
        "type": "Point"
      },
      "id": "012740"
    },
    {
      "type": "Feature",
      "properties": {
        "id": "012750",
        "title": "全家豐原新水源店",
        "address": "台中市豐原區水源路１７號",
        "post": "420",
        "all": "SWEETPOTATO,WiFi,icecream,Toilet,Rest,oneice,twoice,COFFEEDeliver,Preorder,costco,hada",
        "marker-color": "#01ac50"
      },
      "geometry": {
        "coordinates": [
          120.745045,
          24.255146
        ],
        "type": "Point"
      },
      "id": "012750"
    },
    {
      "type": "Feature",
      "properties": {
        "id": "012770",
        "title": "全家燕巢義醫店",
        "address": "高雄市燕巢區義大路１號地下一樓",
        "post": "824",
        "all": "SWEETPOTATO,WiFi,Rest,COFFEEDeliver,SCoffee,Meatballs,hada",
        "marker-color": "#01ac50"
      },
      "geometry": {
        "coordinates": [
          120.364455,
          22.765458
        ],
        "type": "Point"
      },
      "id": "012770"
    },
    {
      "type": "Feature",
      "properties": {
        "id": "012776",
        "title": "全家蘆竹南山店",
        "address": "桃園市蘆竹區南山路一段７５號、７７號",
        "post": "338",
        "all": "SWEETPOTATO,Smoothie,WiFi,icecream,Toilet,Rest,veg,oneice,COFFEEDeliver,FreshFruit,Preorder",
        "marker-color": "#01ac50"
      },
      "geometry": {
        "coordinates": [
          121.292073,
          25.051866
        ],
        "type": "Point"
      },
      "id": "012776"
    },
    {
      "type": "Feature",
      "properties": {
        "id": "012779",
        "title": "全家梓官光明店",
        "address": "高雄市梓官區禮蚵里光明路１２５號１２７號１樓",
        "post": "826",
        "all": "SWEETPOTATO,WiFi,icecream,Rest,oneice,COFFEEDeliver,Preorder,SCoffee,Meatballs,hada",
        "marker-color": "#01ac50"
      },
      "geometry": {
        "coordinates": [
          120.250233,
          22.732549
        ],
        "type": "Point"
      },
      "id": "012779"
    },
    {
      "type": "Feature",
      "properties": {
        "id": "012784",
        "title": "全家新營國道北店",
        "address": "臺南市後壁區竹新里新厝７２號",
        "post": "731",
        "all": "SWEETPOTATO,WiFi,icecream,oneice,twoice,COFFEEDeliver,Preorder,SCoffee,Meatballs,hada",
        "marker-color": "#01ac50"
      },
      "geometry": {
        "coordinates": [
          120.313091,
          23.340068
        ],
        "type": "Point"
      },
      "id": "012784"
    },
    {
      "type": "Feature",
      "properties": {
        "id": "012823",
        "title": "全家草屯佑民店",
        "address": "南投縣草屯鎮正興街７８號",
        "post": "542",
        "all": "SWEETPOTATO,Smoothie,WiFi,Toilet,Rest,Preorder,SCoffee",
        "marker-color": "#01ac50"
      },
      "geometry": {
        "coordinates": [
          120.682274,
          23.960519
        ],
        "type": "Point"
      },
      "id": "012823"
    },
    {
      "type": "Feature",
      "properties": {
        "id": "012835",
        "title": "全家新店龜山店",
        "address": "新北市新店區新烏路三段１４４號１樓",
        "post": "231",
        "all": "SWEETPOTATO,WiFi,Toilet,Rest,Preorder",
        "marker-color": "#01ac50"
      },
      "geometry": {
        "coordinates": [
          121.551981,
          24.902827
        ],
        "type": "Point"
      },
      "id": "012835"
    },
    {
      "type": "Feature",
      "properties": {
        "id": "012836",
        "title": "全家板橋莒安店",
        "address": "新北市板橋區莒光路１３１號",
        "post": "220",
        "all": "SWEETPOTATO,WiFi,Rest,Preorder",
        "marker-color": "#01ac50"
      },
      "geometry": {
        "coordinates": [
          121.472921,
          25.024102
        ],
        "type": "Point"
      },
      "id": "012836"
    },
    {
      "type": "Feature",
      "properties": {
        "id": "012845",
        "title": "全家新港中洋店",
        "address": "嘉義縣新港鄉三間厝１７９號",
        "post": "616",
        "all": "SWEETPOTATO,WiFi,icecream,Toilet,Rest,oneice,twoice,COFFEEDeliver,Preorder,SCoffee",
        "marker-color": "#01ac50"
      },
      "geometry": {
        "coordinates": [
          120.385905,
          23.521663
        ],
        "type": "Point"
      },
      "id": "012845"
    },
    {
      "type": "Feature",
      "properties": {
        "id": "012848",
        "title": "全家新莊北醫店",
        "address": "新北市新莊區思源路１２７號",
        "post": "242",
        "all": "SWEETPOTATO,WiFi,icecream,Rest,oneice,twoice,COFFEEDeliver,Preorder,Rpotato,SCoffee,Meatballs,CS",
        "marker-color": "#01ac50"
      },
      "geometry": {
        "coordinates": [
          121.459594,
          25.043258
        ],
        "type": "Point"
      },
      "id": "012848"
    },
    {
      "type": "Feature",
      "properties": {
        "id": "012857",
        "title": "全家湖濱店",
        "address": "臺北市內湖區內湖路二段１０３巷１０４號",
        "post": "114",
        "all": "SWEETPOTATO,WiFi,Toilet,Rest,veg,Preorder,kit,hada",
        "marker-color": "#01ac50"
      },
      "geometry": {
        "coordinates": [
          121.580862,
          25.083851
        ],
        "type": "Point"
      },
      "id": "012857"
    },
    {
      "type": "Feature",
      "properties": {
        "id": "012863",
        "title": "全家花蓮國興店",
        "address": "花蓮縣花蓮市國聯五路５９號",
        "post": "970",
        "all": "SWEETPOTATO,WiFi,Rest,Preorder",
        "marker-color": "#01ac50"
      },
      "geometry": {
        "coordinates": [
          121.60534211,
          23.99068332
        ],
        "type": "Point"
      },
      "id": "012863"
    },
    {
      "type": "Feature",
      "properties": {
        "id": "012870",
        "title": "全家大雅金學府店",
        "address": "台中市大雅區學府路１７６－３號",
        "post": "428",
        "all": "SWEETPOTATO,WiFi,Toilet,Rest,COFFEEDeliver,Preorder,costco",
        "marker-color": "#01ac50"
      },
      "geometry": {
        "coordinates": [
          120.650297,
          24.220905
        ],
        "type": "Point"
      },
      "id": "012870"
    },
    {
      "type": "Feature",
      "properties": {
        "id": "012877",
        "title": "全家新店大鵬店",
        "address": "新北市新店區中正路６９８號",
        "post": "231",
        "all": "SWEETPOTATO,WiFi,icecream,veg,oneice,Preorder",
        "marker-color": "#01ac50"
      },
      "geometry": {
        "coordinates": [
          121.534175,
          24.990571
        ],
        "type": "Point"
      },
      "id": "012877"
    },
    {
      "type": "Feature",
      "properties": {
        "id": "012878",
        "title": "全家汐止桂冠店",
        "address": "新北市汐止區水源路二段３４號",
        "post": "221",
        "all": "SWEETPOTATO,WiFi,Rest,veg,Preorder,hada,CS",
        "marker-color": "#01ac50"
      },
      "geometry": {
        "coordinates": [
          121.654799,
          25.057134
        ],
        "type": "Point"
      },
      "id": "012878"
    },
    {
      "type": "Feature",
      "properties": {
        "id": "012879",
        "title": "全家汐止力行店",
        "address": "新北市汐止區力行街１號",
        "post": "221",
        "all": "SWEETPOTATO,icecream,Toilet,Rest,oneice,Preorder",
        "marker-color": "#01ac50"
      },
      "geometry": {
        "coordinates": [
          121.617326,
          25.051247
        ],
        "type": "Point"
      },
      "id": "012879"
    },
    {
      "type": "Feature",
      "properties": {
        "id": "012885",
        "title": "全家台中大鼎店",
        "address": "台中市南屯區大墩南路３３２號、３３６號一樓",
        "post": "408",
        "all": "SWEETPOTATO,Photo,WiFi,icecream,Toilet,Rest,oneice,twoice,Preorder,SCoffee,Meatballs,wash",
        "marker-color": "#01ac50"
      },
      "geometry": {
        "coordinates": [
          120.650227,
          24.132163
        ],
        "type": "Point"
      },
      "id": "012885"
    },
    {
      "type": "Feature",
      "properties": {
        "id": "012887",
        "title": "全家烏日成功店",
        "address": "台中市烏日區中山路三段２４２－１號、２４２－２號",
        "post": "414",
        "all": "SWEETPOTATO,WiFi,Rest,Preorder",
        "marker-color": "#01ac50"
      },
      "geometry": {
        "coordinates": [
          120.607044,
          24.108746
        ],
        "type": "Point"
      },
      "id": "012887"
    },
    {
      "type": "Feature",
      "properties": {
        "id": "012901",
        "title": "全家佳里延平店",
        "address": "台南市佳里區延平路４６８－２號",
        "post": "722",
        "all": "SWEETPOTATO,Smoothie,WiFi,Rest,veg,COFFEEDeliver,FreshFruit,Preorder,SCoffee",
        "marker-color": "#01ac50"
      },
      "geometry": {
        "coordinates": [
          120.178316,
          23.165241
        ],
        "type": "Point"
      },
      "id": "012901"
    },
    {
      "type": "Feature",
      "properties": {
        "id": "012905",
        "title": "全家高雄四維店",
        "address": "高雄市苓雅區四維四路５號",
        "post": "802",
        "all": "SWEETPOTATO,WiFi,Rest,COFFEEDeliver,Preorder,SCoffee,wash",
        "marker-color": "#01ac50"
      },
      "geometry": {
        "coordinates": [
          120.30214,
          22.616377
        ],
        "type": "Point"
      },
      "id": "012905"
    },
    {
      "type": "Feature",
      "properties": {
        "id": "012914",
        "title": "全家土城峰吉店",
        "address": "新北市土城區延吉街１５９號１樓",
        "post": "236",
        "all": "SWEETPOTATO,Photo,WiFi,icecream,Toilet,Rest,oneice,twoice,Preorder,intl,wash,kit,hada",
        "marker-color": "#01ac50"
      },
      "geometry": {
        "coordinates": [
          121.470078,
          24.986003
        ],
        "type": "Point"
      },
      "id": "012914"
    },
    {
      "type": "Feature",
      "properties": {
        "id": "012916",
        "title": "全家平鎮廣南店",
        "address": "桃園市平鎮區環南路二段３７號１樓",
        "post": "324",
        "all": "SWEETPOTATO,WiFi,Toilet,Rest,Preorder,pet,wash,kit",
        "marker-color": "#01ac50"
      },
      "geometry": {
        "coordinates": [
          121.209649,
          24.944109
        ],
        "type": "Point"
      },
      "id": "012916"
    },
    {
      "type": "Feature",
      "properties": {
        "id": "012918",
        "title": "全家竹南京元店",
        "address": "苗栗縣竹南鎮中華路１１８號",
        "post": "350",
        "all": "SWEETPOTATO,Preorder,SCoffee,Meatballs,hada",
        "marker-color": "#01ac50"
      },
      "geometry": {
        "coordinates": [
          120.924476,
          24.709175
        ],
        "type": "Point"
      },
      "id": "012918"
    },
    {
      "type": "Feature",
      "properties": {
        "id": "012923",
        "title": "全家台南東成店",
        "address": "台南市東區自由路三段２２３號",
        "post": "701",
        "all": "SWEETPOTATO,Photo,WiFi,icecream,Toilet,Rest,oneice,twoice,COFFEEDeliver,Preorder,hada",
        "marker-color": "#01ac50"
      },
      "geometry": {
        "coordinates": [
          120.23700247,
          22.98258114
        ],
        "type": "Point"
      },
      "id": "012923"
    },
    {
      "type": "Feature",
      "properties": {
        "id": "012936",
        "title": "全家豐原鎌村店",
        "address": "台中市豐原區鎌村路６４９號",
        "post": "420",
        "all": "SWEETPOTATO,WiFi,Toilet,Rest,COFFEEDeliver,Preorder,SCoffee,costco,wash",
        "marker-color": "#01ac50"
      },
      "geometry": {
        "coordinates": [
          120.724294,
          24.222003
        ],
        "type": "Point"
      },
      "id": "012936"
    },
    {
      "type": "Feature",
      "properties": {
        "id": "012940",
        "title": "全家中壢環中店",
        "address": "桃園市中壢區環中東路２０８號、２０８之１號１樓",
        "post": "320",
        "all": "WiFi,Preorder",
        "marker-color": "#01ac50"
      },
      "geometry": {
        "coordinates": [
          121.256516,
          24.963365
        ],
        "type": "Point"
      },
      "id": "012940"
    },
    {
      "type": "Feature",
      "properties": {
        "id": "012943",
        "title": "全家中視店",
        "address": "台北市南港區興南街３９號１樓",
        "post": "115",
        "all": "SWEETPOTATO,WiFi,icecream,Rest,oneice,twoice,COFFEEDeliver,Preorder,Meatballs",
        "marker-color": "#01ac50"
      },
      "geometry": {
        "coordinates": [
          121.601501,
          25.0562
        ],
        "type": "Point"
      },
      "id": "012943"
    },
    {
      "type": "Feature",
      "properties": {
        "id": "012955",
        "title": "全家宜蘭內員山店",
        "address": "宜蘭縣員山鄉溫泉路１０號、１０之１號",
        "post": "264",
        "all": "SWEETPOTATO,WiFi,Toilet,Rest,Preorder,Meatballs,pet,kit",
        "marker-color": "#01ac50"
      },
      "geometry": {
        "coordinates": [
          121.713305,
          24.749595
        ],
        "type": "Point"
      },
      "id": "012955"
    },
    {
      "type": "Feature",
      "properties": {
        "id": "012956",
        "title": "全家中和莒城店",
        "address": "新北市中和區莒光路１８１號",
        "post": "235",
        "all": "SWEETPOTATO,WiFi,Rest,Preorder,CS",
        "marker-color": "#01ac50"
      },
      "geometry": {
        "coordinates": [
          121.472726,
          24.99917
        ],
        "type": "Point"
      },
      "id": "012956"
    },
    {
      "type": "Feature",
      "properties": {
        "id": "012972",
        "title": "全家鹽水朝琴店",
        "address": "台南市鹽水區水秀里朝琴路１４０之２號一樓",
        "post": "737",
        "all": "WiFi,Rest,COFFEEDeliver,Preorder",
        "marker-color": "#01ac50"
      },
      "geometry": {
        "coordinates": [
          120.272054,
          23.323261
        ],
        "type": "Point"
      },
      "id": "012972"
    },
    {
      "type": "Feature",
      "properties": {
        "id": "012976",
        "title": "全家板橋富陽店",
        "address": "新北市板橋區漢生里復興街１３０號一樓",
        "post": "220",
        "all": "SWEETPOTATO,WiFi,Preorder,hada",
        "marker-color": "#01ac50"
      },
      "geometry": {
        "coordinates": [
          121.461114,
          25.0179
        ],
        "type": "Point"
      },
      "id": "012976"
    },
    {
      "type": "Feature",
      "properties": {
        "id": "012980",
        "title": "全家中壢西園店",
        "address": "桃園市中壢區永福里南園二路１２號１４號一樓",
        "post": "320",
        "all": "SWEETPOTATO,WiFi,icecream,Toilet,Rest,oneice,twoice,Preorder,SCoffee,Meatballs,kit",
        "marker-color": "#01ac50"
      },
      "geometry": {
        "coordinates": [
          121.235715,
          24.97187
        ],
        "type": "Point"
      },
      "id": "012980"
    },
    {
      "type": "Feature",
      "properties": {
        "id": "012984",
        "title": "全家澎湖望安店",
        "address": "澎湖縣望安鄉東安村２－１３號",
        "post": "882",
        "all": "SWEETPOTATO,icecream,Toilet,Rest,veg,oneice,FreshFruit,Preorder,costco",
        "marker-color": "#01ac50"
      },
      "geometry": {
        "coordinates": [
          119.507396,
          23.362014
        ],
        "type": "Point"
      },
      "id": "012984"
    },
    {
      "type": "Feature",
      "properties": {
        "id": "012987",
        "title": "全家中壢明光店",
        "address": "桃園市中壢區中華路一段５５０號８樓",
        "post": "320",
        "all": "SWEETPOTATO,Preorder,Rpotato,SCoffee",
        "marker-color": "#01ac50"
      },
      "geometry": {
        "coordinates": [
          121.251985,
          24.970787
        ],
        "type": "Point"
      },
      "id": "012987"
    },
    {
      "type": "Feature",
      "properties": {
        "id": "012989",
        "title": "全家龍潭武漢店",
        "address": "桃園市龍潭區中興路３３４號１樓",
        "post": "325",
        "all": "SWEETPOTATO,Photo,WiFi,icecream,Toilet,Rest,oneice,twoice,Preorder",
        "marker-color": "#01ac50"
      },
      "geometry": {
        "coordinates": [
          121.232579,
          24.873782
        ],
        "type": "Point"
      },
      "id": "012989"
    },
    {
      "type": "Feature",
      "properties": {
        "id": "012998",
        "title": "全家汐止亞太店",
        "address": "新北市汐止區新台五路一段９６號Ｃ棟",
        "post": "221",
        "all": "SWEETPOTATO,Preorder,SCoffee,dessert",
        "marker-color": "#01ac50"
      },
      "geometry": {
        "coordinates": [
          121.648169,
          25.060745
        ],
        "type": "Point"
      },
      "id": "012998"
    },
    {
      "type": "Feature",
      "properties": {
        "id": "013000",
        "title": "全家土城順風店",
        "address": "新北市土城區中央路二段１５４號",
        "post": "236",
        "all": "SWEETPOTATO,WiFi,icecream,Rest,oneice,twoice,Preorder,Meatballs,hada",
        "marker-color": "#01ac50"
      },
      "geometry": {
        "coordinates": [
          121.441856,
          24.976799
        ],
        "type": "Point"
      },
      "id": "013000"
    },
    {
      "type": "Feature",
      "properties": {
        "id": "013001",
        "title": "全家中和萊陽店",
        "address": "新北市中和區瓦嗂里光華街１號３號一樓",
        "post": "235",
        "all": "SWEETPOTATO,WiFi,icecream,Rest,oneice,Preorder,hada",
        "marker-color": "#01ac50"
      },
      "geometry": {
        "coordinates": [
          121.50429,
          25.004495
        ],
        "type": "Point"
      },
      "id": "013001"
    },
    {
      "type": "Feature",
      "properties": {
        "id": "013013",
        "title": "全家草屯太平店",
        "address": "南投縣草屯鎮太平路一段４９８號",
        "post": "542",
        "all": "SWEETPOTATO,icecream,Toilet,Rest,oneice,twoice,SUNMAI,Preorder,costco",
        "marker-color": "#01ac50"
      },
      "geometry": {
        "coordinates": [
          120.682887,
          23.968316
        ],
        "type": "Point"
      },
      "id": "013013"
    },
    {
      "type": "Feature",
      "properties": {
        "id": "013020",
        "title": "全家新店福民店",
        "address": "新北市新店區中央路１４５號",
        "post": "231",
        "all": "SWEETPOTATO,WiFi,icecream,Toilet,Rest,oneice,SUNMAI,Preorder,SCoffee",
        "marker-color": "#01ac50"
      },
      "geometry": {
        "coordinates": [
          121.530166,
          24.973447
        ],
        "type": "Point"
      },
      "id": "013020"
    },
    {
      "type": "Feature",
      "properties": {
        "id": "013022",
        "title": "全家三重集美店",
        "address": "新北市三重區集美街１４９號１樓",
        "post": "241",
        "all": "SWEETPOTATO,WiFi,COFFEEDeliver,Preorder,CS",
        "marker-color": "#01ac50"
      },
      "geometry": {
        "coordinates": [
          121.490589,
          25.053101
        ],
        "type": "Point"
      },
      "id": "013022"
    },
    {
      "type": "Feature",
      "properties": {
        "id": "013024",
        "title": "全家豐華店",
        "address": "台北市松山區民生東路三段１１３巷６弄１號一樓",
        "post": "105",
        "all": "SWEETPOTATO,WiFi,icecream,Toilet,Rest,oneice,COFFEEDeliver,SUNMAI,Preorder,SCoffee,Meatballs,hada,CS",
        "marker-color": "#01ac50"
      },
      "geometry": {
        "coordinates": [
          121.546023,
          25.058587
        ],
        "type": "Point"
      },
      "id": "013024"
    },
    {
      "type": "Feature",
      "properties": {
        "id": "013030",
        "title": "全家麥寮新泰順店",
        "address": "雲林縣麥寮鄉中興路７６－３號",
        "post": "638",
        "all": "SWEETPOTATO,Photo,WiFi,icecream,Toilet,Rest,oneice,COFFEEDeliver,Preorder",
        "marker-color": "#01ac50"
      },
      "geometry": {
        "coordinates": [
          120.252307,
          23.752261
        ],
        "type": "Point"
      },
      "id": "013030"
    },
    {
      "type": "Feature",
      "properties": {
        "id": "013032",
        "title": "全家新德城店",
        "address": "台北市中山區德惠街１６－７號",
        "post": "104",
        "all": "SWEETPOTATO,WiFi,icecream,Rest,oneice,COFFEEDeliver,Preorder,SCoffee,Meatballs,hada",
        "marker-color": "#01ac50"
      },
      "geometry": {
        "coordinates": [
          121.524672,
          25.066625
        ],
        "type": "Point"
      },
      "id": "013032"
    },
    {
      "type": "Feature",
      "properties": {
        "id": "013051",
        "title": "全家桃園元富店",
        "address": "桃園市桃園區大業路一段４６號、４８號１樓",
        "post": "330",
        "all": "SWEETPOTATO,WiFi,icecream,Rest,oneice,twoice,SUNMAI,Preorder,SCoffee,costco,pet,wash,kit,hada",
        "marker-color": "#01ac50"
      },
      "geometry": {
        "coordinates": [
          121.31807,
          25.00438
        ],
        "type": "Point"
      },
      "id": "013051"
    },
    {
      "type": "Feature",
      "properties": {
        "id": "013052",
        "title": "全家新竹科館店",
        "address": "新竹市東區工業東二路１號１樓",
        "post": "300",
        "all": "SWEETPOTATO,WiFi,Rest,Preorder,SCoffee,Meatballs,hada",
        "marker-color": "#01ac50"
      },
      "geometry": {
        "coordinates": [
          121.005634,
          24.779803
        ],
        "type": "Point"
      },
      "id": "013052"
    },
    {
      "type": "Feature",
      "properties": {
        "id": "013053",
        "title": "全家新竹金竹店",
        "address": "新竹市北區金竹路１１５號１樓",
        "post": "300",
        "all": "SWEETPOTATO,WiFi,Toilet,Rest,Preorder,SCoffee",
        "marker-color": "#01ac50"
      },
      "geometry": {
        "coordinates": [
          120.97275,
          24.823589
        ],
        "type": "Point"
      },
      "id": "013053"
    },
    {
      "type": "Feature",
      "properties": {
        "id": "013071",
        "title": "全家高雄覺禮店",
        "address": "高雄市三民區覺民路３８號",
        "post": "807",
        "all": "SWEETPOTATO,Photo,WiFi,icecream,Rest,oneice,twoice,COFFEEDeliver,Preorder,Rpotato,SCoffee,dessert,costco,hada",
        "marker-color": "#01ac50"
      },
      "geometry": {
        "coordinates": [
          120.34359,
          22.639032
        ],
        "type": "Point"
      },
      "id": "013071"
    },
    {
      "type": "Feature",
      "properties": {
        "id": "013072",
        "title": "全家高雄興楠店",
        "address": "高雄市楠梓區興楠路３５４號１樓",
        "post": "811",
        "all": "SWEETPOTATO,WiFi,Rest,Preorder,hada",
        "marker-color": "#01ac50"
      },
      "geometry": {
        "coordinates": [
          120.33144,
          22.729209
        ],
        "type": "Point"
      },
      "id": "013072"
    },
    {
      "type": "Feature",
      "properties": {
        "id": "013084",
        "title": "全家竹北新東元店",
        "address": "新竹縣竹北市縣政二路６７號１樓",
        "post": "302",
        "all": "SWEETPOTATO,WiFi,icecream,Toilet,Rest,veg,oneice,twoice,Preorder,SCoffee",
        "marker-color": "#01ac50"
      },
      "geometry": {
        "coordinates": [
          121.01422,
          24.82364
        ],
        "type": "Point"
      },
      "id": "013084"
    },
    {
      "type": "Feature",
      "properties": {
        "id": "013096",
        "title": "全家玉里玉溪店",
        "address": "花蓮縣玉里鎮中華路１７７號",
        "post": "981",
        "all": "SWEETPOTATO,Photo,WiFi,icecream,Toilet,Rest,oneice,twoice,SUNMAI,Preorder,SCoffee,costco,pet,wash,kit",
        "marker-color": "#01ac50"
      },
      "geometry": {
        "coordinates": [
          121.31523783,
          23.33798533
        ],
        "type": "Point"
      },
      "id": "013096"
    },
    {
      "type": "Feature",
      "properties": {
        "id": "013123",
        "title": "全家大肚高山店",
        "address": "台中市大肚區大德三街３８號",
        "post": "432",
        "all": "SWEETPOTATO,WiFi,Toilet,Rest,Preorder",
        "marker-color": "#01ac50"
      },
      "geometry": {
        "coordinates": [
          120.540117,
          24.156538
        ],
        "type": "Point"
      },
      "id": "013123"
    },
    {
      "type": "Feature",
      "properties": {
        "id": "013127",
        "title": "全家鳳山埤頂店",
        "address": "高雄市鳳山區中山東路５４５號一樓",
        "post": "830",
        "all": "SWEETPOTATO,Smoothie,Photo,WiFi,icecream,Toilet,Rest,oneice,Preorder,pet,wash",
        "marker-color": "#01ac50"
      },
      "geometry": {
        "coordinates": [
          120.381323,
          22.628886
        ],
        "type": "Point"
      },
      "id": "013127"
    },
    {
      "type": "Feature",
      "properties": {
        "id": "013129",
        "title": "全家中和嘉穗店",
        "address": "新北市中和區民利街９１號１樓",
        "post": "235",
        "all": "SWEETPOTATO,WiFi,Toilet,Rest,veg,SUNMAI,Preorder,Meatballs",
        "marker-color": "#01ac50"
      },
      "geometry": {
        "coordinates": [
          121.477954,
          24.9979
        ],
        "type": "Point"
      },
      "id": "013129"
    },
    {
      "type": "Feature",
      "properties": {
        "id": "013159",
        "title": "全家新店玫瑰店",
        "address": "新北市新店區玫瑰路５８巷１號１樓",
        "post": "231",
        "all": "SWEETPOTATO,WiFi,icecream,Rest,oneice,Preorder,Meatballs",
        "marker-color": "#01ac50"
      },
      "geometry": {
        "coordinates": [
          121.495433,
          24.946516
        ],
        "type": "Point"
      },
      "id": "013159"
    },
    {
      "type": "Feature",
      "properties": {
        "id": "013172",
        "title": "全家高雄科大店",
        "address": "高雄市燕巢區大學路１號學生活動中心一樓",
        "post": "824",
        "all": "SWEETPOTATO,WiFi,COFFEEDeliver,Preorder,Meatballs",
        "marker-color": "#01ac50"
      },
      "geometry": {
        "coordinates": [
          120.337999,
          22.758464
        ],
        "type": "Point"
      },
      "id": "013172"
    },
    {
      "type": "Feature",
      "properties": {
        "id": "013181",
        "title": "全家新竹竹科店",
        "address": "新竹市東區科學工業園區竹村七路７號１樓",
        "post": "300",
        "all": "SWEETPOTATO,WiFi,icecream,Toilet,Rest,veg,oneice,twoice,Preorder,SCoffee,Meatballs,hada",
        "marker-color": "#01ac50"
      },
      "geometry": {
        "coordinates": [
          120.97346565,
          24.80526935
        ],
        "type": "Point"
      },
      "id": "013181"
    },
    {
      "type": "Feature",
      "properties": {
        "id": "013182",
        "title": "全家沙鹿正德店",
        "address": "台中市沙鹿區屏西路９８號",
        "post": "433",
        "all": "SWEETPOTATO,Smoothie,Photo,WiFi,icecream,Toilet,Rest,oneice,twoice,COFFEEDeliver,SUNMAI,Preorder,Meatballs,costco",
        "marker-color": "#01ac50"
      },
      "geometry": {
        "coordinates": [
          120.568404,
          24.207232
        ],
        "type": "Point"
      },
      "id": "013182"
    },
    {
      "type": "Feature",
      "properties": {
        "id": "013183",
        "title": "全家造橋朝陽店",
        "address": "苗栗縣造橋鄉朝陽村朝陽路１２７號",
        "post": "361",
        "all": "SWEETPOTATO,WiFi,Toilet,Rest,Preorder,hada",
        "marker-color": "#01ac50"
      },
      "geometry": {
        "coordinates": [
          120.867359,
          24.655708
        ],
        "type": "Point"
      },
      "id": "013183"
    },
    {
      "type": "Feature",
      "properties": {
        "id": "013185",
        "title": "全家台中福美店",
        "address": "台中市西屯區西安街９１號，西屯區烈美街１７１號１樓",
        "post": "407",
        "all": "SWEETPOTATO,Smoothie,Photo,WiFi,icecream,oneice,COFFEEDeliver,SUNMAI,Preorder,SCoffee",
        "marker-color": "#01ac50"
      },
      "geometry": {
        "coordinates": [
          120.642422,
          24.181626
        ],
        "type": "Point"
      },
      "id": "013185"
    },
    {
      "type": "Feature",
      "properties": {
        "id": "013208",
        "title": "全家福興福鹿店",
        "address": "彰化縣福興鄉復興路１２０號",
        "post": "506",
        "all": "SWEETPOTATO,WiFi,icecream,Toilet,Rest,oneice,twoice,Preorder,SCoffee,costco",
        "marker-color": "#01ac50"
      },
      "geometry": {
        "coordinates": [
          120.4390706066,
          24.0528536494
        ],
        "type": "Point"
      },
      "id": "013208"
    },
    {
      "type": "Feature",
      "properties": {
        "id": "013210",
        "title": "全家竹北嘉興店",
        "address": "新竹縣竹北市勝利七街二段６６號１樓",
        "post": "302",
        "all": "SWEETPOTATO,WiFi,icecream,Rest,veg,oneice,twoice,FreshFruit,Preorder",
        "marker-color": "#01ac50"
      },
      "geometry": {
        "coordinates": [
          121.033059,
          24.822571
        ],
        "type": "Point"
      },
      "id": "013210"
    },
    {
      "type": "Feature",
      "properties": {
        "id": "013251",
        "title": "全家新店中欣店",
        "address": "新北市新店區中正路３號",
        "post": "231",
        "all": "SWEETPOTATO,WiFi,Rest,Preorder",
        "marker-color": "#01ac50"
      },
      "geometry": {
        "coordinates": [
          121.545654,
          24.96922
        ],
        "type": "Point"
      },
      "id": "013251"
    },
    {
      "type": "Feature",
      "properties": {
        "id": "013253",
        "title": "全家溪湖大發店",
        "address": "彰化縣溪湖鎮大發路７３號",
        "post": "514",
        "all": "SWEETPOTATO,Photo,WiFi,Toilet,Rest,COFFEEDeliver,Preorder,SCoffee,Meatballs,hada",
        "marker-color": "#01ac50"
      },
      "geometry": {
        "coordinates": [
          120.4756733,
          23.9634203
        ],
        "type": "Point"
      },
      "id": "013253"
    },
    {
      "type": "Feature",
      "properties": {
        "id": "013258",
        "title": "全家台中師院店",
        "address": "台中市西區民權路１８９號",
        "post": "403",
        "all": "SWEETPOTATO,WiFi,Toilet,Rest,Preorder,SCoffee,Meatballs",
        "marker-color": "#01ac50"
      },
      "geometry": {
        "coordinates": [
          120.67073,
          24.145705
        ],
        "type": "Point"
      },
      "id": "013258"
    },
    {
      "type": "Feature",
      "properties": {
        "id": "013260",
        "title": "全家台中敦化店",
        "address": "台中市北屯區敦化路一段５７３號",
        "post": "406",
        "all": "SWEETPOTATO,Smoothie,WiFi,icecream,Rest,oneice,COFFEEDeliver,Preorder,SCoffee,hada",
        "marker-color": "#01ac50"
      },
      "geometry": {
        "coordinates": [
          120.66622917,
          24.18656021
        ],
        "type": "Point"
      },
      "id": "013260"
    },
    {
      "type": "Feature",
      "properties": {
        "id": "013263",
        "title": "全家大林慈院店",
        "address": "嘉義縣大林鎮民生路２號Ｂ１樓",
        "post": "622",
        "all": "SWEETPOTATO,WiFi,veg,COFFEEDeliver,FreshFruit,Preorder,Rpotato,SCoffee,leezen",
        "marker-color": "#01ac50"
      },
      "geometry": {
        "coordinates": [
          120.457473,
          23.596293
        ],
        "type": "Point"
      },
      "id": "013263"
    },
    {
      "type": "Feature",
      "properties": {
        "id": "013268",
        "title": "全家高雄華漾店",
        "address": "高雄市鼓山區華泰路１５２號",
        "post": "804",
        "all": "SWEETPOTATO,WiFi,Toilet,Rest,COFFEEDeliver,Preorder,wash",
        "marker-color": "#01ac50"
      },
      "geometry": {
        "coordinates": [
          120.292134,
          22.668258
        ],
        "type": "Point"
      },
      "id": "013268"
    },
    {
      "type": "Feature",
      "properties": {
        "id": "013275",
        "title": "全家通霄中正店",
        "address": "苗栗縣通霄鎮中正路８０號",
        "post": "357",
        "all": "SWEETPOTATO,Smoothie,WiFi,icecream,Toilet,Rest,oneice,COFFEEDeliver,Preorder,SCoffee,Meatballs,costco",
        "marker-color": "#01ac50"
      },
      "geometry": {
        "coordinates": [
          120.679546,
          24.490748
        ],
        "type": "Point"
      },
      "id": "013275"
    },
    {
      "type": "Feature",
      "properties": {
        "id": "013283",
        "title": "全家永興店",
        "address": "台北市北投區中庸里永興路一段１號、３號一樓",
        "post": "112",
        "all": "SWEETPOTATO,WiFi,Rest,Preorder,SCoffee,hada",
        "marker-color": "#01ac50"
      },
      "geometry": {
        "coordinates": [
          121.499326,
          25.138854
        ],
        "type": "Point"
      },
      "id": "013283"
    },
    {
      "type": "Feature",
      "properties": {
        "id": "013284",
        "title": "全家新德明店",
        "address": "臺北市內湖區環山路一段１１０號",
        "post": "114",
        "all": "SWEETPOTATO,WiFi,icecream,Rest,oneice,Preorder,SCoffee,Meatballs",
        "marker-color": "#01ac50"
      },
      "geometry": {
        "coordinates": [
          121.567981,
          25.086553
        ],
        "type": "Point"
      },
      "id": "013284"
    },
    {
      "type": "Feature",
      "properties": {
        "id": "013286",
        "title": "全家康柏店",
        "address": "台北市松山區健康路２２０號",
        "post": "105",
        "all": "SWEETPOTATO,WiFi,Rest,Preorder,SCoffee",
        "marker-color": "#01ac50"
      },
      "geometry": {
        "coordinates": [
          121.560983,
          25.05389
        ],
        "type": "Point"
      },
      "id": "013286"
    },
    {
      "type": "Feature",
      "properties": {
        "id": "013312",
        "title": "全家欣松春店",
        "address": "台北市信義區松山路２８１號１樓",
        "post": "110",
        "all": "SWEETPOTATO,WiFi,Toilet,Rest,Preorder",
        "marker-color": "#01ac50"
      },
      "geometry": {
        "coordinates": [
          121.577963,
          25.043108
        ],
        "type": "Point"
      },
      "id": "013312"
    },
    {
      "type": "Feature",
      "properties": {
        "id": "013313",
        "title": "全家龍井新文勝店",
        "address": "台中市龍井區臺灣大道五段３巷６２弄４９號",
        "post": "434",
        "all": "SWEETPOTATO,WiFi,Toilet,Rest,SUNMAI,Preorder",
        "marker-color": "#01ac50"
      },
      "geometry": {
        "coordinates": [
          120.590484,
          24.182462
        ],
        "type": "Point"
      },
      "id": "013313"
    },
    {
      "type": "Feature",
      "properties": {
        "id": "013321",
        "title": "全家苗栗聯大店",
        "address": "苗栗縣苗栗市南勢里聯大二號",
        "post": "360",
        "all": "Rest,Preorder,Meatballs",
        "marker-color": "#01ac50"
      },
      "geometry": {
        "coordinates": [
          120.790719,
          24.53721
        ],
        "type": "Point"
      },
      "id": "013321"
    },
    {
      "type": "Feature",
      "properties": {
        "id": "013330",
        "title": "全家竹東大林店",
        "address": "新竹縣竹東鎮中豐路三段６號１樓",
        "post": "310",
        "all": "SWEETPOTATO,WiFi,icecream,Toilet,Rest,oneice,twoice,Preorder,Meatballs,intl",
        "marker-color": "#01ac50"
      },
      "geometry": {
        "coordinates": [
          121.086288,
          24.727394
        ],
        "type": "Point"
      },
      "id": "013330"
    },
    {
      "type": "Feature",
      "properties": {
        "id": "013332",
        "title": "全家大同店",
        "address": "台北市北投區大業路４５２巷３１號",
        "post": "112",
        "all": "SWEETPOTATO,Rest,Preorder,SCoffee",
        "marker-color": "#01ac50"
      },
      "geometry": {
        "coordinates": [
          121.497258,
          25.132132
        ],
        "type": "Point"
      },
      "id": "013332"
    },
    {
      "type": "Feature",
      "properties": {
        "id": "013339",
        "title": "全家中和安邦店",
        "address": "新北市中和區圓通路１６９號",
        "post": "235",
        "all": "SWEETPOTATO,WiFi,Rest,Preorder",
        "marker-color": "#01ac50"
      },
      "geometry": {
        "coordinates": [
          121.49766,
          24.995336
        ],
        "type": "Point"
      },
      "id": "013339"
    },
    {
      "type": "Feature",
      "properties": {
        "id": "013359",
        "title": "全家斗六雲大店",
        "address": "雲林縣斗六市中山路５７３號",
        "post": "640",
        "all": "SWEETPOTATO,Photo,WiFi,Toilet,Rest,COFFEEDeliver,Preorder",
        "marker-color": "#01ac50"
      },
      "geometry": {
        "coordinates": [
          120.53837595,
          23.69455786
        ],
        "type": "Point"
      },
      "id": "013359"
    },
    {
      "type": "Feature",
      "properties": {
        "id": "013361",
        "title": "全家台南長安店",
        "address": "台南市安南區長和路二段１２巷２７５號",
        "post": "709",
        "all": "SWEETPOTATO,WiFi,icecream,Toilet,Rest,oneice,COFFEEDeliver,Preorder,costco,wash",
        "marker-color": "#01ac50"
      },
      "geometry": {
        "coordinates": [
          120.222893,
          23.069714
        ],
        "type": "Point"
      },
      "id": "013361"
    },
    {
      "type": "Feature",
      "properties": {
        "id": "013363",
        "title": "全家新莊華寧店",
        "address": "新北市新莊區中華路１段８號１樓",
        "post": "242",
        "all": "SWEETPOTATO,Photo,WiFi,icecream,Toilet,Rest,oneice,twoice,Preorder,LCoffee,SCoffee,Meatballs,intl,wash,hada,CS",
        "marker-color": "#01ac50"
      },
      "geometry": {
        "coordinates": [
          121.452151,
          25.036709
        ],
        "type": "Point"
      },
      "id": "013363"
    },
    {
      "type": "Feature",
      "properties": {
        "id": "013365",
        "title": "全家新莊天成店",
        "address": "新北市新莊區新北大道七段２１９號",
        "post": "242",
        "all": "SWEETPOTATO,WiFi,icecream,Rest,oneice,COFFEEDeliver,Preorder,SCoffee,CS",
        "marker-color": "#01ac50"
      },
      "geometry": {
        "coordinates": [
          121.41367,
          25.030111
        ],
        "type": "Point"
      },
      "id": "013365"
    },
    {
      "type": "Feature",
      "properties": {
        "id": "013368",
        "title": "全家台南和緯店",
        "address": "台南市北區文成里和緯路三段３３３號１樓",
        "post": "704",
        "all": "SWEETPOTATO,WiFi,icecream,Rest,oneice,twoice,COFFEEDeliver,Preorder,SCoffee",
        "marker-color": "#01ac50"
      },
      "geometry": {
        "coordinates": [
          120.195891,
          23.009742
        ],
        "type": "Point"
      },
      "id": "013368"
    },
    {
      "type": "Feature",
      "properties": {
        "id": "013369",
        "title": "全家高雄常德店",
        "address": "高雄市楠梓區常德路３２０號一樓與二樓四坪空間",
        "post": "811",
        "all": "SWEETPOTATO,WiFi,Rest,SUNMAI,Preorder",
        "marker-color": "#01ac50"
      },
      "geometry": {
        "coordinates": [
          120.337294,
          22.73716
        ],
        "type": "Point"
      },
      "id": "013369"
    },
    {
      "type": "Feature",
      "properties": {
        "id": "013385",
        "title": "全家板橋雙十店",
        "address": "新北市板橋區雙十路二段６—８號，６—９號，６—１０",
        "post": "220",
        "all": "SWEETPOTATO,WiFi,icecream,Rest,veg,oneice,twoice,Preorder,SCoffee,Meatballs,hada",
        "marker-color": "#01ac50"
      },
      "geometry": {
        "coordinates": [
          121.476782,
          25.026403
        ],
        "type": "Point"
      },
      "id": "013385"
    },
    {
      "type": "Feature",
      "properties": {
        "id": "013386",
        "title": "全家五股自強店",
        "address": "新北市五股區自強路７４號１樓",
        "post": "248",
        "all": "SWEETPOTATO,WiFi,icecream,Rest,oneice,Preorder",
        "marker-color": "#01ac50"
      },
      "geometry": {
        "coordinates": [
          121.432911,
          25.072984
        ],
        "type": "Point"
      },
      "id": "013386"
    },
    {
      "type": "Feature",
      "properties": {
        "id": "013388",
        "title": "全家新莊自成店",
        "address": "新北市新莊區自信街２號１樓",
        "post": "242",
        "all": "SWEETPOTATO,WiFi,Toilet,Preorder",
        "marker-color": "#01ac50"
      },
      "geometry": {
        "coordinates": [
          121.453296,
          25.048182
        ],
        "type": "Point"
      },
      "id": "013388"
    },
    {
      "type": "Feature",
      "properties": {
        "id": "013389",
        "title": "全家三重力行店",
        "address": "新北市三重區力行路一段４０號",
        "post": "241",
        "all": "SWEETPOTATO,WiFi,COFFEEDeliver,Preorder",
        "marker-color": "#01ac50"
      },
      "geometry": {
        "coordinates": [
          121.486182,
          25.067995
        ],
        "type": "Point"
      },
      "id": "013389"
    },
    {
      "type": "Feature",
      "properties": {
        "id": "013390",
        "title": "全家平鎮大仁店",
        "address": "桃園市平鎮區金陵路三段６８號",
        "post": "324",
        "all": "SWEETPOTATO,WiFi,icecream,Rest,oneice,twoice,Preorder,kit,hada",
        "marker-color": "#01ac50"
      },
      "geometry": {
        "coordinates": [
          121.227285,
          24.928556
        ],
        "type": "Point"
      },
      "id": "013390"
    },
    {
      "type": "Feature",
      "properties": {
        "id": "013397",
        "title": "全家埔里鐵山店",
        "address": "南投縣埔里鎮鐵山路９號．９－１號",
        "post": "545",
        "all": "Smoothie,WiFi,Toilet,Rest,Preorder,wash,kit",
        "marker-color": "#01ac50"
      },
      "geometry": {
        "coordinates": [
          120.943026,
          23.974432
        ],
        "type": "Point"
      },
      "id": "013397"
    },
    {
      "type": "Feature",
      "properties": {
        "id": "013411",
        "title": "全家三重三佾店",
        "address": "新北市三重區中央北路５８號１樓",
        "post": "241",
        "all": "WiFi,icecream,oneice,COFFEEDeliver,Preorder",
        "marker-color": "#01ac50"
      },
      "geometry": {
        "coordinates": [
          121.500477,
          25.065549
        ],
        "type": "Point"
      },
      "id": "013411"
    },
    {
      "type": "Feature",
      "properties": {
        "id": "013417",
        "title": "全家高雄鑫讚店",
        "address": "高雄市三民區建國二路２６５之１號",
        "post": "807",
        "all": "SWEETPOTATO,WiFi,icecream,Rest,oneice,COFFEEDeliver,Preorder",
        "marker-color": "#01ac50"
      },
      "geometry": {
        "coordinates": [
          120.30398471,
          22.63736235
        ],
        "type": "Point"
      },
      "id": "013417"
    },
    {
      "type": "Feature",
      "properties": {
        "id": "013422",
        "title": "全家太平新凱悅店",
        "address": "台中市太平區中平九街１１７號",
        "post": "411",
        "all": "SWEETPOTATO,WiFi,Toilet,Rest,Preorder,Meatballs,costco",
        "marker-color": "#01ac50"
      },
      "geometry": {
        "coordinates": [
          120.720201,
          24.123782
        ],
        "type": "Point"
      },
      "id": "013422"
    },
    {
      "type": "Feature",
      "properties": {
        "id": "013435",
        "title": "全家永和環河店",
        "address": "新北市永和區環河西路二段２１９號，２２１號",
        "post": "234",
        "all": "SWEETPOTATO,WiFi,icecream,Rest,veg,oneice,SUNMAI,Preorder,Meatballs,hada",
        "marker-color": "#01ac50"
      },
      "geometry": {
        "coordinates": [
          121.501219,
          25.010188
        ],
        "type": "Point"
      },
      "id": "013435"
    },
    {
      "type": "Feature",
      "properties": {
        "id": "013440",
        "title": "全家和美金美店",
        "address": "彰化縣和美鎮月眉里和厝路一段臨２１６號",
        "post": "508",
        "all": "SWEETPOTATO,WiFi,icecream,Parking,Toilet,Rest,oneice,Preorder,pet,kit",
        "marker-color": "#01ac50"
      },
      "geometry": {
        "coordinates": [
          120.4952696,
          24.1212984
        ],
        "type": "Point"
      },
      "id": "013440"
    },
    {
      "type": "Feature",
      "properties": {
        "id": "013443",
        "title": "全家台中至尊店",
        "address": "台中市西屯區西屯路二段２６８－１２，１３號",
        "post": "407",
        "all": "SWEETPOTATO,WiFi,Rest,COFFEEDeliver,Preorder",
        "marker-color": "#01ac50"
      },
      "geometry": {
        "coordinates": [
          120.644611,
          24.174221
        ],
        "type": "Point"
      },
      "id": "013443"
    },
    {
      "type": "Feature",
      "properties": {
        "id": "013457",
        "title": "全家八德茄苳店",
        "address": "桃園市八德區茄苳路８４６號１樓",
        "post": "334",
        "all": "SWEETPOTATO,WiFi,Rest,Preorder",
        "marker-color": "#01ac50"
      },
      "geometry": {
        "coordinates": [
          121.27954,
          24.96751
        ],
        "type": "Point"
      },
      "id": "013457"
    },
    {
      "type": "Feature",
      "properties": {
        "id": "013463",
        "title": "全家屏東武成店",
        "address": "屏東縣屏東市武成街８２－５號",
        "post": "900",
        "all": "SWEETPOTATO,WiFi,icecream,Rest,oneice,twoice,COFFEEDeliver,Preorder,Meatballs,pet",
        "marker-color": "#01ac50"
      },
      "geometry": {
        "coordinates": [
          120.47696,
          22.656115
        ],
        "type": "Point"
      },
      "id": "013463"
    },
    {
      "type": "Feature",
      "properties": {
        "id": "013495",
        "title": "全家中壢六合店",
        "address": "桃園市中壢區六和路４８號",
        "post": "320",
        "all": "SWEETPOTATO,WiFi,Rest,Preorder,Meatballs",
        "marker-color": "#01ac50"
      },
      "geometry": {
        "coordinates": [
          121.224302,
          24.964587
        ],
        "type": "Point"
      },
      "id": "013495"
    },
    {
      "type": "Feature",
      "properties": {
        "id": "013498",
        "title": "全家花壇金花店",
        "address": "彰化縣花壇鄉中正路３５６號壹樓",
        "post": "503",
        "all": "SWEETPOTATO,WiFi,Rest,COFFEEDeliver,Preorder,hada",
        "marker-color": "#01ac50"
      },
      "geometry": {
        "coordinates": [
          120.5380299,
          24.0253591
        ],
        "type": "Point"
      },
      "id": "013498"
    },
    {
      "type": "Feature",
      "properties": {
        "id": "013499",
        "title": "全家新莊天美店",
        "address": "新北市新莊區天祥街４２號１樓",
        "post": "242",
        "all": "SWEETPOTATO,WiFi,COFFEEDeliver,Preorder,CS",
        "marker-color": "#01ac50"
      },
      "geometry": {
        "coordinates": [
          121.416832,
          25.028898
        ],
        "type": "Point"
      },
      "id": "013499"
    },
    {
      "type": "Feature",
      "properties": {
        "id": "013500",
        "title": "全家嘉義向榮店",
        "address": "嘉義市西區國華街５１９號１樓",
        "post": "600",
        "all": "SWEETPOTATO,WiFi,Rest,COFFEEDeliver,Preorder",
        "marker-color": "#01ac50"
      },
      "geometry": {
        "coordinates": [
          120.446463,
          23.488537
        ],
        "type": "Point"
      },
      "id": "013500"
    },
    {
      "type": "Feature",
      "properties": {
        "id": "013504",
        "title": "全家竹東長春店",
        "address": "新竹縣竹東鎮長春路三段１６５號一、二樓",
        "post": "310",
        "all": "SWEETPOTATO,WiFi,Toilet,Rest,Preorder",
        "marker-color": "#01ac50"
      },
      "geometry": {
        "coordinates": [
          121.083647,
          24.743206
        ],
        "type": "Point"
      },
      "id": "013504"
    },
    {
      "type": "Feature",
      "properties": {
        "id": "013506",
        "title": "全家清水榮玉店",
        "address": "台中市清水區中正街７９號",
        "post": "436",
        "all": "SWEETPOTATO,WiFi,icecream,Toilet,Rest,oneice,twoice,COFFEEDeliver,Preorder,SCoffee,Meatballs",
        "marker-color": "#01ac50"
      },
      "geometry": {
        "coordinates": [
          120.569885,
          24.263257
        ],
        "type": "Point"
      },
      "id": "013506"
    },
    {
      "type": "Feature",
      "properties": {
        "id": "013511",
        "title": "全家濱江店",
        "address": "台北市中山區建國北路三段１１１號１樓",
        "post": "104",
        "all": "SWEETPOTATO,WiFi,icecream,Rest,oneice,COFFEEDeliver,SUNMAI,Preorder,Meatballs,kit,CS",
        "marker-color": "#01ac50"
      },
      "geometry": {
        "coordinates": [
          121.535999,
          25.066365
        ],
        "type": "Point"
      },
      "id": "013511"
    },
    {
      "type": "Feature",
      "properties": {
        "id": "013522",
        "title": "全家竹東興仁店",
        "address": "新竹縣竹東鎮仁愛路４４６號１樓",
        "post": "310",
        "all": "SWEETPOTATO,WiFi,Rest,Preorder",
        "marker-color": "#01ac50"
      },
      "geometry": {
        "coordinates": [
          121.091831,
          24.740253
        ],
        "type": "Point"
      },
      "id": "013522"
    },
    {
      "type": "Feature",
      "properties": {
        "id": "013549",
        "title": "全家辛亥店",
        "address": "台北市大安區辛亥路二段１７１巷３號",
        "post": "106",
        "all": "SWEETPOTATO,Photo,WiFi,icecream,Rest,veg,oneice,twoice,Preorder,SCoffee,Meatballs,intl,hada",
        "marker-color": "#01ac50"
      },
      "geometry": {
        "coordinates": [
          121.541159,
          25.02196
        ],
        "type": "Point"
      },
      "id": "013549"
    },
    {
      "type": "Feature",
      "properties": {
        "id": "013551",
        "title": "全家花蓮榮正店",
        "address": "花蓮縣花蓮市中正路２０７號．２０９號",
        "post": "970",
        "all": "SWEETPOTATO,Photo,WiFi,icecream,Toilet,Rest,oneice,twoice,Preorder,costco",
        "marker-color": "#01ac50"
      },
      "geometry": {
        "coordinates": [
          121.59929648,
          23.97212918
        ],
        "type": "Point"
      },
      "id": "013551"
    },
    {
      "type": "Feature",
      "properties": {
        "id": "013552",
        "title": "全家板橋館西店",
        "address": "新北市板橋區館前西路１２８號",
        "post": "220",
        "all": "SWEETPOTATO,WiFi,Preorder",
        "marker-color": "#01ac50"
      },
      "geometry": {
        "coordinates": [
          121.456539,
          25.007867
        ],
        "type": "Point"
      },
      "id": "013552"
    },
    {
      "type": "Feature",
      "properties": {
        "id": "013556",
        "title": "全家樹林俊霖店",
        "address": "新北市樹林區俊英街１５５巷１號１樓",
        "post": "238",
        "all": "SWEETPOTATO,WiFi,Toilet,Rest,COFFEEDeliver,Preorder,Meatballs",
        "marker-color": "#01ac50"
      },
      "geometry": {
        "coordinates": [
          121.424127,
          25.012263
        ],
        "type": "Point"
      },
      "id": "013556"
    },
    {
      "type": "Feature",
      "properties": {
        "id": "013557",
        "title": "全家中壢興廣店",
        "address": "桃園市中壢區新中北路二段４８９號",
        "post": "320",
        "all": "SWEETPOTATO,WiFi,icecream,Rest,oneice,Preorder",
        "marker-color": "#01ac50"
      },
      "geometry": {
        "coordinates": [
          121.264371,
          24.955898
        ],
        "type": "Point"
      },
      "id": "013557"
    },
    {
      "type": "Feature",
      "properties": {
        "id": "013560",
        "title": "全家和美新矽品店",
        "address": "彰化縣和美鎮新庄里彰新路二段８號",
        "post": "508",
        "all": "SWEETPOTATO,Rest,Preorder,Rpotato,SCoffee,Meatballs,costco",
        "marker-color": "#01ac50"
      },
      "geometry": {
        "coordinates": [
          120.537862,
          24.093509
        ],
        "type": "Point"
      },
      "id": "013560"
    },
    {
      "type": "Feature",
      "properties": {
        "id": "013565",
        "title": "全家台中新大富店",
        "address": "台中市西屯區朝富路１００號１樓",
        "post": "407",
        "all": "SWEETPOTATO,WiFi,Toilet,Rest,COFFEEDeliver,Preorder,SCoffee,intl",
        "marker-color": "#01ac50"
      },
      "geometry": {
        "coordinates": [
          120.636684,
          24.165709
        ],
        "type": "Point"
      },
      "id": "013565"
    },
    {
      "type": "Feature",
      "properties": {
        "id": "013571",
        "title": "全家華崗店",
        "address": "台北市士林區光華路２６巷３號－２",
        "post": "111",
        "all": "SWEETPOTATO,WiFi,Rest,Preorder",
        "marker-color": "#01ac50"
      },
      "geometry": {
        "coordinates": [
          121.54188,
          25.137313
        ],
        "type": "Point"
      },
      "id": "013571"
    },
    {
      "type": "Feature",
      "properties": {
        "id": "013576",
        "title": "全家宜蘭二城店",
        "address": "宜蘭縣頭城鎮青雲路一段２３８號１樓",
        "post": "261",
        "all": "SWEETPOTATO,WiFi,Toilet,Rest,Preorder,pet,kit",
        "marker-color": "#01ac50"
      },
      "geometry": {
        "coordinates": [
          121.795064,
          24.839007
        ],
        "type": "Point"
      },
      "id": "013576"
    },
    {
      "type": "Feature",
      "properties": {
        "id": "013577",
        "title": "全家宜蘭進士店",
        "address": "宜蘭縣宜蘭市南橋路４２７號",
        "post": "260",
        "all": "SWEETPOTATO,WiFi,icecream,Toilet,Rest,oneice,Preorder,pet",
        "marker-color": "#01ac50"
      },
      "geometry": {
        "coordinates": [
          121.74045184,
          24.73566866
        ],
        "type": "Point"
      },
      "id": "013577"
    },
    {
      "type": "Feature",
      "properties": {
        "id": "013578",
        "title": "全家永和羅鄰店",
        "address": "新北市永和區保平路２６８巷２５號１樓",
        "post": "234",
        "all": "SWEETPOTATO,WiFi,Rest,COFFEEDeliver,Preorder,Meatballs,pet,hada,CS",
        "marker-color": "#01ac50"
      },
      "geometry": {
        "coordinates": [
          121.507941,
          25.005836
        ],
        "type": "Point"
      },
      "id": "013578"
    },
    {
      "type": "Feature",
      "properties": {
        "id": "013579",
        "title": "全家中壢龍川店",
        "address": "桃園市中壢區龍川街３號１樓．２樓約５坪",
        "post": "320",
        "all": "SWEETPOTATO,WiFi,Rest,Preorder,hada",
        "marker-color": "#01ac50"
      },
      "geometry": {
        "coordinates": [
          121.249196,
          24.934605
        ],
        "type": "Point"
      },
      "id": "013579"
    },
    {
      "type": "Feature",
      "properties": {
        "id": "013582",
        "title": "全家埔里高工店",
        "address": "南投縣埔里鎮和平東路４３１號",
        "post": "545",
        "all": "SWEETPOTATO,Smoothie,WiFi,icecream,Toilet,Rest,oneice,COFFEEDeliver,Preorder,costco,hada",
        "marker-color": "#01ac50"
      },
      "geometry": {
        "coordinates": [
          120.976607,
          23.971502
        ],
        "type": "Point"
      },
      "id": "013582"
    },
    {
      "type": "Feature",
      "properties": {
        "id": "013586",
        "title": "全家鳥松仁美店",
        "address": "高雄市鳥松區學堂路９１－１號",
        "post": "833",
        "all": "SWEETPOTATO,WiFi,icecream,Rest,oneice,COFFEEDeliver,Preorder,Rpotato,Meatballs,costco",
        "marker-color": "#01ac50"
      },
      "geometry": {
        "coordinates": [
          120.392104,
          22.65822
        ],
        "type": "Point"
      },
      "id": "013586"
    },
    {
      "type": "Feature",
      "properties": {
        "id": "013597",
        "title": "全家五股水碓店",
        "address": "新北市五股區成泰路一段７巷２１號、２３號１樓",
        "post": "248",
        "all": "SWEETPOTATO,WiFi,Toilet,Rest,Preorder,wash,kit,CS",
        "marker-color": "#01ac50"
      },
      "geometry": {
        "coordinates": [
          121.432325,
          25.067178
        ],
        "type": "Point"
      },
      "id": "013597"
    },
    {
      "type": "Feature",
      "properties": {
        "id": "013607",
        "title": "全家竹南京華店",
        "address": "苗栗縣竹南鎮中華路１２３號１樓",
        "post": "350",
        "all": "SWEETPOTATO,WiFi,icecream,Toilet,Rest,oneice,twoice,COFFEEDeliver,Preorder,Meatballs",
        "marker-color": "#01ac50"
      },
      "geometry": {
        "coordinates": [
          120.924106,
          24.709282
        ],
        "type": "Point"
      },
      "id": "013607"
    },
    {
      "type": "Feature",
      "properties": {
        "id": "013639",
        "title": "全家羅中店",
        "address": "台北市大安區羅斯福路二段１７號１Ｆ",
        "post": "106",
        "all": "SWEETPOTATO,WiFi,icecream,oneice,Preorder,SCoffee",
        "marker-color": "#01ac50"
      },
      "geometry": {
        "coordinates": [
          121.521912,
          25.028126
        ],
        "type": "Point"
      },
      "id": "013639"
    },
    {
      "type": "Feature",
      "properties": {
        "id": "013650",
        "title": "全家永和永復店",
        "address": "新北市永和區永和路二段３１６號１樓",
        "post": "234",
        "all": "SWEETPOTATO,WiFi,icecream,Toilet,Rest,oneice,twoice,Preorder,hada,CS",
        "marker-color": "#01ac50"
      },
      "geometry": {
        "coordinates": [
          121.516329,
          25.016294
        ],
        "type": "Point"
      },
      "id": "013650"
    },
    {
      "type": "Feature",
      "properties": {
        "id": "013652",
        "title": "全家中和朕新店",
        "address": "新北市中和區景德街１２４號１樓",
        "post": "235",
        "all": "SWEETPOTATO,WiFi,icecream,Toilet,Rest,oneice,twoice,SUNMAI,Preorder,costco,pet,kit,hada",
        "marker-color": "#01ac50"
      },
      "geometry": {
        "coordinates": [
          121.514597,
          24.991131
        ],
        "type": "Point"
      },
      "id": "013652"
    },
    {
      "type": "Feature",
      "properties": {
        "id": "013653",
        "title": "全家板橋樂福店",
        "address": "新北市板橋區三民路二段２１巷６號１樓",
        "post": "220",
        "all": "SWEETPOTATO,WiFi,Rest,Preorder,SCoffee",
        "marker-color": "#01ac50"
      },
      "geometry": {
        "coordinates": [
          121.479681,
          25.018155
        ],
        "type": "Point"
      },
      "id": "013653"
    },
    {
      "type": "Feature",
      "properties": {
        "id": "013658",
        "title": "全家大雅楓林店",
        "address": "台中市大雅區民生路三段４５８號",
        "post": "428",
        "all": "SWEETPOTATO,Smoothie,WiFi,icecream,Toilet,Rest,oneice,COFFEEDeliver,Preorder,Meatballs",
        "marker-color": "#01ac50"
      },
      "geometry": {
        "coordinates": [
          120.665979,
          24.234664
        ],
        "type": "Point"
      },
      "id": "013658"
    },
    {
      "type": "Feature",
      "properties": {
        "id": "013660",
        "title": "全家台中金頂店",
        "address": "台中市北屯區部子路３５１、３５３號",
        "post": "406",
        "all": "SWEETPOTATO,WiFi,icecream,Toilet,Rest,oneice,twoice,COFFEEDeliver,SUNMAI,Preorder,SCoffee,costco,pet",
        "marker-color": "#01ac50"
      },
      "geometry": {
        "coordinates": [
          120.73313353,
          24.17038317
        ],
        "type": "Point"
      },
      "id": "013660"
    },
    {
      "type": "Feature",
      "properties": {
        "id": "013662",
        "title": "全家彰化林森店",
        "address": "彰化縣彰化市林森路１９７，１９９，２０１號",
        "post": "500",
        "all": "SWEETPOTATO,Photo,WiFi,Toilet,Rest,veg,Preorder,SCoffee,Meatballs,costco",
        "marker-color": "#01ac50"
      },
      "geometry": {
        "coordinates": [
          120.5266934,
          24.0732538
        ],
        "type": "Point"
      },
      "id": "013662"
    },
    {
      "type": "Feature",
      "properties": {
        "id": "013665",
        "title": "全家屏東歸來店",
        "address": "屏東縣屏東市湖南里歸義巷３４號一樓",
        "post": "900",
        "all": "SWEETPOTATO,Smoothie,WiFi,Rest,Preorder",
        "marker-color": "#01ac50"
      },
      "geometry": {
        "coordinates": [
          120.504495,
          22.655502
        ],
        "type": "Point"
      },
      "id": "013665"
    },
    {
      "type": "Feature",
      "properties": {
        "id": "013672",
        "title": "全家中和水源店",
        "address": "新北市中和區保平路３２０號、３２２號",
        "post": "235",
        "all": "SWEETPOTATO,Photo,WiFi,Rest,Preorder,Meatballs,wash,CS",
        "marker-color": "#01ac50"
      },
      "geometry": {
        "coordinates": [
          121.5072913,
          25.00439459
        ],
        "type": "Point"
      },
      "id": "013672"
    },
    {
      "type": "Feature",
      "properties": {
        "id": "013673",
        "title": "全家板橋裕盛店",
        "address": "新北市板橋區裕民街９５號",
        "post": "220",
        "all": "SWEETPOTATO,WiFi,Rest,Preorder",
        "marker-color": "#01ac50"
      },
      "geometry": {
        "coordinates": [
          121.460234,
          25.027921
        ],
        "type": "Point"
      },
      "id": "013673"
    },
    {
      "type": "Feature",
      "properties": {
        "id": "013690",
        "title": "全家綠堤店",
        "address": "台北市萬華區環河南路二段１７３號",
        "post": "108",
        "all": "SWEETPOTATO,WiFi,icecream,Rest,oneice,COFFEEDeliver,Preorder,hada,CS",
        "marker-color": "#01ac50"
      },
      "geometry": {
        "coordinates": [
          121.492299,
          25.032933
        ],
        "type": "Point"
      },
      "id": "013690"
    },
    {
      "type": "Feature",
      "properties": {
        "id": "013691",
        "title": "全家板橋堂春店",
        "address": "新北市板橋區篤行路三段１號１樓",
        "post": "220",
        "all": "SWEETPOTATO,WiFi,Toilet,Rest,Preorder,CS",
        "marker-color": "#01ac50"
      },
      "geometry": {
        "coordinates": [
          121.429424,
          24.987736
        ],
        "type": "Point"
      },
      "id": "013691"
    },
    {
      "type": "Feature",
      "properties": {
        "id": "013692",
        "title": "全家樹林五圓店",
        "address": "新北市樹林區忠孝街９９號１樓",
        "post": "238",
        "all": "SWEETPOTATO,Smoothie,Photo,WiFi,Toilet,Rest,SUNMAI,Preorder,SCoffee,Meatballs",
        "marker-color": "#01ac50"
      },
      "geometry": {
        "coordinates": [
          121.424422,
          24.980973
        ],
        "type": "Point"
      },
      "id": "013692"
    },
    {
      "type": "Feature",
      "properties": {
        "id": "013696",
        "title": "全家集集金集店",
        "address": "南投縣集集鎮民生路６９號",
        "post": "552",
        "all": "SWEETPOTATO,WiFi,icecream,Rest,oneice,twoice,Preorder",
        "marker-color": "#01ac50"
      },
      "geometry": {
        "coordinates": [
          120.784917,
          23.827024
        ],
        "type": "Point"
      },
      "id": "013696"
    },
    {
      "type": "Feature",
      "properties": {
        "id": "013700",
        "title": "全家樹林俊信店",
        "address": "新北市樹林區俊英街１１８號１樓",
        "post": "238",
        "all": "SWEETPOTATO,WiFi,Toilet,Rest,Preorder,Meatballs,CS",
        "marker-color": "#01ac50"
      },
      "geometry": {
        "coordinates": [
          121.427418,
          25.005665
        ],
        "type": "Point"
      },
      "id": "013700"
    },
    {
      "type": "Feature",
      "properties": {
        "id": "013708",
        "title": "全家中和佳和店",
        "address": "新北市中和區佳和里中山路二段１３２號、１３４號１樓",
        "post": "235",
        "all": "SWEETPOTATO,WiFi,icecream,Toilet,Rest,oneice,twoice,COFFEEDeliver,Preorder,Rpotato,SCoffee,Meatballs,dessert,intl,CS",
        "marker-color": "#01ac50"
      },
      "geometry": {
        "coordinates": [
          121.502312,
          25.003492
        ],
        "type": "Point"
      },
      "id": "013708"
    },
    {
      "type": "Feature",
      "properties": {
        "id": "013716",
        "title": "全家永和復興店",
        "address": "新北市永和區秀朗路一段１８６號１Ｆ",
        "post": "234",
        "all": "SWEETPOTATO,WiFi,icecream,Rest,oneice,Preorder,Meatballs,costco,wash,hada",
        "marker-color": "#01ac50"
      },
      "geometry": {
        "coordinates": [
          121.519183,
          25.003178
        ],
        "type": "Point"
      },
      "id": "013716"
    },
    {
      "type": "Feature",
      "properties": {
        "id": "013717",
        "title": "全家台中東園店",
        "address": "台中市東區東光園路５３６號",
        "post": "401",
        "all": "SWEETPOTATO,Smoothie,WiFi,Toilet,Rest,Preorder",
        "marker-color": "#01ac50"
      },
      "geometry": {
        "coordinates": [
          120.697303,
          24.138505
        ],
        "type": "Point"
      },
      "id": "013717"
    },
    {
      "type": "Feature",
      "properties": {
        "id": "013729",
        "title": "全家金林店",
        "address": "台北市中山區林森北路１０９號１樓",
        "post": "104",
        "all": "SWEETPOTATO,WiFi,icecream,Rest,veg,oneice,twoice,SUNMAI,Preorder,intl,pet,hada",
        "marker-color": "#01ac50"
      },
      "geometry": {
        "coordinates": [
          121.525082,
          25.050426
        ],
        "type": "Point"
      },
      "id": "013729"
    },
    {
      "type": "Feature",
      "properties": {
        "id": "013731",
        "title": "全家金磚店",
        "address": "台北市中山區雙城街１９巷２號",
        "post": "104",
        "all": "SWEETPOTATO,WiFi,Rest,COFFEEDeliver,Preorder",
        "marker-color": "#01ac50"
      },
      "geometry": {
        "coordinates": [
          121.524514,
          25.065333
        ],
        "type": "Point"
      },
      "id": "013731"
    },
    {
      "type": "Feature",
      "properties": {
        "id": "013736",
        "title": "全家中壢元大二店",
        "address": "桃園市中壢區遠東路１３５號（元智大學圖書館）",
        "post": "320",
        "all": "SWEETPOTATO,WiFi,Preorder,Meatballs,hada",
        "marker-color": "#01ac50"
      },
      "geometry": {
        "coordinates": [
          121.262951,
          24.969239
        ],
        "type": "Point"
      },
      "id": "013736"
    },
    {
      "type": "Feature",
      "properties": {
        "id": "013737",
        "title": "全家台中市民店",
        "address": "台中市西區公正路１０３號",
        "post": "403",
        "all": "SWEETPOTATO,icecream,oneice,COFFEEDeliver,SUNMAI,Preorder,SCoffee,hada",
        "marker-color": "#01ac50"
      },
      "geometry": {
        "coordinates": [
          120.662869,
          24.148935
        ],
        "type": "Point"
      },
      "id": "013737"
    },
    {
      "type": "Feature",
      "properties": {
        "id": "013740",
        "title": "全家新德光店",
        "address": "台北市松山區光復南路３２巷４６－４號",
        "post": "105",
        "all": "SWEETPOTATO,WiFi,icecream,Rest,oneice,twoice,SUNMAI,Preorder,CS",
        "marker-color": "#01ac50"
      },
      "geometry": {
        "coordinates": [
          121.554312,
          25.046203
        ],
        "type": "Point"
      },
      "id": "013740"
    },
    {
      "type": "Feature",
      "properties": {
        "id": "013741",
        "title": "全家銅鑼京元店",
        "address": "苗栗縣銅鑼鄉銅科北路８號４樓",
        "post": "366",
        "all": "Rest,Preorder,SCoffee",
        "marker-color": "#01ac50"
      },
      "geometry": {
        "coordinates": [
          120.766902,
          24.467456
        ],
        "type": "Point"
      },
      "id": "013741"
    },
    {
      "type": "Feature",
      "properties": {
        "id": "013742",
        "title": "全家秀水好水店",
        "address": "彰化縣秀水鄉福安村２２鄰彰水路二段６２８號",
        "post": "504",
        "all": "SWEETPOTATO,Photo,WiFi,icecream,Toilet,Rest,oneice,twoice,COFFEEDeliver,Preorder,SCoffee,Meatballs,costco,hada",
        "marker-color": "#01ac50"
      },
      "geometry": {
        "coordinates": [
          120.4981307,
          24.0321157
        ],
        "type": "Point"
      },
      "id": "013742"
    },
    {
      "type": "Feature",
      "properties": {
        "id": "013743",
        "title": "全家鳳山頂庄店",
        "address": "高雄市鳳山區過勇路１１１號",
        "post": "830",
        "all": "SWEETPOTATO,WiFi,Toilet,Rest,veg,COFFEEDeliver,Preorder,SCoffee,pet,wash,kit,hada",
        "marker-color": "#01ac50"
      },
      "geometry": {
        "coordinates": [
          120.362662,
          22.588122
        ],
        "type": "Point"
      },
      "id": "013743"
    },
    {
      "type": "Feature",
      "properties": {
        "id": "013765",
        "title": "全家羅東復興店",
        "address": "宜蘭縣羅東鎮竹林里復興路二段１０２號１樓",
        "post": "265",
        "all": "SWEETPOTATO,WiFi,Toilet,Rest,Preorder,kit",
        "marker-color": "#01ac50"
      },
      "geometry": {
        "coordinates": [
          121.765949,
          24.687945
        ],
        "type": "Point"
      },
      "id": "013765"
    },
    {
      "type": "Feature",
      "properties": {
        "id": "013771",
        "title": "全家新莊新樹店",
        "address": "新北市新莊區新樹路６１３號１樓",
        "post": "242",
        "all": "SWEETPOTATO,WiFi,Rest,veg,Preorder,Meatballs,dessert",
        "marker-color": "#01ac50"
      },
      "geometry": {
        "coordinates": [
          121.433568,
          25.004125
        ],
        "type": "Point"
      },
      "id": "013771"
    },
    {
      "type": "Feature",
      "properties": {
        "id": "013774",
        "title": "全家竹北宏福店",
        "address": "新竹縣竹北市光明一路２３６號１樓",
        "post": "302",
        "all": "SWEETPOTATO,WiFi,icecream,Toilet,Rest,oneice,twoice,COFFEEDeliver,Preorder,Rpotato,SCoffee,Meatballs,dessert,wash,hada",
        "marker-color": "#01ac50"
      },
      "geometry": {
        "coordinates": [
          121.01515,
          24.8307
        ],
        "type": "Point"
      },
      "id": "013774"
    },
    {
      "type": "Feature",
      "properties": {
        "id": "013775",
        "title": "全家豐原互助店",
        "address": "台中市豐原區三村里西勢路４１１號１樓",
        "post": "420",
        "all": "SWEETPOTATO,Smoothie,WiFi,Toilet,Rest,COFFEEDeliver,Preorder,intl,pet,wash",
        "marker-color": "#01ac50"
      },
      "geometry": {
        "coordinates": [
          120.704516,
          24.239551
        ],
        "type": "Point"
      },
      "id": "013775"
    },
    {
      "type": "Feature",
      "properties": {
        "id": "013776",
        "title": "全家麥寮六輕店",
        "address": "雲林縣麥寮鄉中興村台塑工業園區１號",
        "post": "638",
        "all": "SWEETPOTATO,Preorder,costco,wash",
        "marker-color": "#01ac50"
      },
      "geometry": {
        "coordinates": [
          120.21306,
          23.801308
        ],
        "type": "Point"
      },
      "id": "013776"
    },
    {
      "type": "Feature",
      "properties": {
        "id": "013777",
        "title": "全家東港東隆店",
        "address": "屏東縣東港鎮中正路５５號１樓",
        "post": "928",
        "all": "SWEETPOTATO,WiFi,Rest,Preorder",
        "marker-color": "#01ac50"
      },
      "geometry": {
        "coordinates": [
          120.449213,
          22.465979
        ],
        "type": "Point"
      },
      "id": "013777"
    },
    {
      "type": "Feature",
      "properties": {
        "id": "013790",
        "title": "全家台中真義店",
        "address": "台中市北屯區松義街１６０號、１６２號",
        "post": "406",
        "all": "SWEETPOTATO,WiFi,icecream,Toilet,Rest,oneice,COFFEEDeliver,Preorder",
        "marker-color": "#01ac50"
      },
      "geometry": {
        "coordinates": [
          120.698406,
          24.184326
        ],
        "type": "Point"
      },
      "id": "013790"
    },
    {
      "type": "Feature",
      "properties": {
        "id": "013794",
        "title": "全家京民店",
        "address": "台北市松山區三民路６號＋Ｂ１",
        "post": "105",
        "all": "SWEETPOTATO,WiFi,icecream,Toilet,Rest,oneice,twoice,COFFEEDeliver,Preorder,SCoffee,Meatballs",
        "marker-color": "#01ac50"
      },
      "geometry": {
        "coordinates": [
          121.563917,
          25.052166
        ],
        "type": "Point"
      },
      "id": "013794"
    },
    {
      "type": "Feature",
      "properties": {
        "id": "013813",
        "title": "全家基隆暖東店",
        "address": "基隆市暖暖區暖暖街１６３號",
        "post": "205",
        "all": "SWEETPOTATO,WiFi,icecream,Toilet,Rest,oneice,twoice,Preorder,Meatballs",
        "marker-color": "#01ac50"
      },
      "geometry": {
        "coordinates": [
          121.736321,
          25.09974
        ],
        "type": "Point"
      },
      "id": "013813"
    },
    {
      "type": "Feature",
      "properties": {
        "id": "013815",
        "title": "全家新店三福店",
        "address": "新北市新店區三民路７７號",
        "post": "231",
        "all": "SWEETPOTATO,Photo,WiFi,icecream,oneice,twoice,Preorder,SCoffee",
        "marker-color": "#01ac50"
      },
      "geometry": {
        "coordinates": [
          121.535901,
          24.971507
        ],
        "type": "Point"
      },
      "id": "013815"
    },
    {
      "type": "Feature",
      "properties": {
        "id": "013820",
        "title": "全家湖口千禧店",
        "address": "新竹縣湖口鄉千禧路１號１樓",
        "post": "303",
        "all": "SWEETPOTATO,Photo,WiFi,icecream,Rest,oneice,SUNMAI,Preorder,SCoffee,Meatballs,wash,kit,hada",
        "marker-color": "#01ac50"
      },
      "geometry": {
        "coordinates": [
          121.027209,
          24.88397
        ],
        "type": "Point"
      },
      "id": "013820"
    },
    {
      "type": "Feature",
      "properties": {
        "id": "013822",
        "title": "全家彰化大村店",
        "address": "彰化縣大村鄉中山路二段３１３號及中正西路１號",
        "post": "515",
        "all": "SWEETPOTATO,WiFi,Toilet,Rest,Preorder",
        "marker-color": "#01ac50"
      },
      "geometry": {
        "coordinates": [
          120.5637769,
          23.9891909
        ],
        "type": "Point"
      },
      "id": "013822"
    },
    {
      "type": "Feature",
      "properties": {
        "id": "013823",
        "title": "全家濟南二店",
        "address": "台北市大安區濟南路３段７號",
        "post": "106",
        "all": "SWEETPOTATO,WiFi,icecream,Toilet,Rest,veg,oneice,twoice,COFFEEDeliver,Preorder,SCoffee",
        "marker-color": "#01ac50"
      },
      "geometry": {
        "coordinates": [
          121.533506,
          25.040241
        ],
        "type": "Point"
      },
      "id": "013823"
    },
    {
      "type": "Feature",
      "properties": {
        "id": "013825",
        "title": "全家基隆仁四店",
        "address": "基隆市仁愛區仁四路５２號１樓",
        "post": "200",
        "all": "SWEETPOTATO,WiFi,Rest,Preorder,SCoffee,kit,hada",
        "marker-color": "#01ac50"
      },
      "geometry": {
        "coordinates": [
          121.741188,
          25.128379
        ],
        "type": "Point"
      },
      "id": "013825"
    },
    {
      "type": "Feature",
      "properties": {
        "id": "013827",
        "title": "全家板橋市府店",
        "address": "新北市板橋區中山路一段１６１號Ｂ１",
        "post": "220",
        "all": "SWEETPOTATO,WiFi,icecream,Rest,oneice,twoice,Preorder,SCoffee,Meatballs,dessert",
        "marker-color": "#01ac50"
      },
      "geometry": {
        "coordinates": [
          121.46561,
          25.012087
        ],
        "type": "Point"
      },
      "id": "013827"
    },
    {
      "type": "Feature",
      "properties": {
        "id": "013832",
        "title": "全家永和維源店",
        "address": "新北市永和區水源街３９巷２號",
        "post": "234",
        "all": "SWEETPOTATO,WiFi,icecream,Rest,oneice,Preorder,Meatballs,wash",
        "marker-color": "#01ac50"
      },
      "geometry": {
        "coordinates": [
          121.510299,
          25.004235
        ],
        "type": "Point"
      },
      "id": "013832"
    },
    {
      "type": "Feature",
      "properties": {
        "id": "013833",
        "title": "全家中壢中央二店",
        "address": "桃園市中壢區中大路３００號（男九舍）",
        "post": "320",
        "all": "SWEETPOTATO,Photo,icecream,oneice,twoice,Preorder,Meatballs,hada",
        "marker-color": "#01ac50"
      },
      "geometry": {
        "coordinates": [
          121.195305,
          24.968256
        ],
        "type": "Point"
      },
      "id": "013833"
    },
    {
      "type": "Feature",
      "properties": {
        "id": "013850",
        "title": "全家三重欣田店",
        "address": "新北市三重區自強路二段２４號",
        "post": "241",
        "all": "SWEETPOTATO,WiFi,Toilet,Rest,Preorder,CS",
        "marker-color": "#01ac50"
      },
      "geometry": {
        "coordinates": [
          121.489558,
          25.069177
        ],
        "type": "Point"
      },
      "id": "013850"
    },
    {
      "type": "Feature",
      "properties": {
        "id": "013855",
        "title": "全家中正大學店",
        "address": "嘉義縣民雄鄉三興村１６０號",
        "post": "621",
        "all": "SWEETPOTATO,Smoothie,WiFi,icecream,oneice,Preorder,hada",
        "marker-color": "#01ac50"
      },
      "geometry": {
        "coordinates": [
          120.467398,
          23.536428
        ],
        "type": "Point"
      },
      "id": "013855"
    },
    {
      "type": "Feature",
      "properties": {
        "id": "013856",
        "title": "全家中正新創店",
        "address": "嘉義縣民雄鄉大學路１６８號（共同科教室）",
        "post": "621",
        "all": "SWEETPOTATO,Preorder,Meatballs",
        "marker-color": "#01ac50"
      },
      "geometry": {
        "coordinates": [
          120.47556505,
          23.56284988
        ],
        "type": "Point"
      },
      "id": "013856"
    },
    {
      "type": "Feature",
      "properties": {
        "id": "013868",
        "title": "全家南投中寮店",
        "address": "南投縣中寮鄉永安街９８號",
        "post": "541",
        "all": "SWEETPOTATO,Smoothie,WiFi,icecream,Rest,oneice,twoice,COFFEEDeliver,Preorder,SCoffee,hada",
        "marker-color": "#01ac50"
      },
      "geometry": {
        "coordinates": [
          120.766701,
          23.879761
        ],
        "type": "Point"
      },
      "id": "013868"
    },
    {
      "type": "Feature",
      "properties": {
        "id": "013871",
        "title": "全家土城新亞店",
        "address": "新北市土城區亞洲路５７號",
        "post": "236",
        "all": "SWEETPOTATO,WiFi,Toilet,Rest,Preorder,SCoffee,Meatballs",
        "marker-color": "#01ac50"
      },
      "geometry": {
        "coordinates": [
          121.433339,
          24.971216
        ],
        "type": "Point"
      },
      "id": "013871"
    },
    {
      "type": "Feature",
      "properties": {
        "id": "013876",
        "title": "全家雲林水林店",
        "address": "雲林縣水林鄉新興南路４號，６號",
        "post": "652",
        "all": "SWEETPOTATO,Smoothie,Photo,WiFi,icecream,Toilet,Rest,oneice,Preorder",
        "marker-color": "#01ac50"
      },
      "geometry": {
        "coordinates": [
          120.23967595,
          23.57161786
        ],
        "type": "Point"
      },
      "id": "013876"
    },
    {
      "type": "Feature",
      "properties": {
        "id": "013883",
        "title": "全家民雄正大店",
        "address": "嘉義縣民雄鄉正大路一段９１９號１樓",
        "post": "621",
        "all": "SWEETPOTATO,WiFi,Toilet,Rest,COFFEEDeliver,Preorder",
        "marker-color": "#01ac50"
      },
      "geometry": {
        "coordinates": [
          120.458907,
          23.546195
        ],
        "type": "Point"
      },
      "id": "013883"
    },
    {
      "type": "Feature",
      "properties": {
        "id": "013885",
        "title": "全家台南新樓店",
        "address": "台南市東區東門路一段５７號１樓",
        "post": "701",
        "all": "SWEETPOTATO,WiFi,Preorder,SCoffee,dessert",
        "marker-color": "#01ac50"
      },
      "geometry": {
        "coordinates": [
          120.212833,
          22.989133
        ],
        "type": "Point"
      },
      "id": "013885"
    },
    {
      "type": "Feature",
      "properties": {
        "id": "013888",
        "title": "全家太平新甲店",
        "address": "台中市太平區新仁路一段４２號，４４巷２號",
        "post": "411",
        "all": "WiFi,Rest,Preorder,SCoffee",
        "marker-color": "#01ac50"
      },
      "geometry": {
        "coordinates": [
          120.706916,
          24.111875
        ],
        "type": "Point"
      },
      "id": "013888"
    },
    {
      "type": "Feature",
      "properties": {
        "id": "013895",
        "title": "全家沙鹿東家店",
        "address": "台中市沙鹿區北勢東路４１１－２號",
        "post": "433",
        "all": "SWEETPOTATO,Photo,WiFi,Toilet,Rest,COFFEEDeliver,SUNMAI,Preorder",
        "marker-color": "#01ac50"
      },
      "geometry": {
        "coordinates": [
          120.578338,
          24.221683
        ],
        "type": "Point"
      },
      "id": "013895"
    },
    {
      "type": "Feature",
      "properties": {
        "id": "013896",
        "title": "全家霧峰吉峰店",
        "address": "台中市霧峰區民生路３５３號",
        "post": "413",
        "all": "SWEETPOTATO,Smoothie,WiFi,Toilet,Rest,COFFEEDeliver,Preorder,Meatballs",
        "marker-color": "#01ac50"
      },
      "geometry": {
        "coordinates": [
          120.718558,
          24.078678
        ],
        "type": "Point"
      },
      "id": "013896"
    },
    {
      "type": "Feature",
      "properties": {
        "id": "013898",
        "title": "全家建南店",
        "address": "台北市大安區建國南路１段１５６，１５８號",
        "post": "106",
        "all": "SWEETPOTATO,WiFi,Preorder,SCoffee",
        "marker-color": "#01ac50"
      },
      "geometry": {
        "coordinates": [
          121.536914,
          25.041199
        ],
        "type": "Point"
      },
      "id": "013898"
    },
    {
      "type": "Feature",
      "properties": {
        "id": "013905",
        "title": "全家板橋三民店",
        "address": "新北市板橋區三民路二段２０３之９號",
        "post": "220",
        "all": "SWEETPOTATO,WiFi,Rest,Preorder,hada",
        "marker-color": "#01ac50"
      },
      "geometry": {
        "coordinates": [
          121.479139,
          25.013386
        ],
        "type": "Point"
      },
      "id": "013905"
    },
    {
      "type": "Feature",
      "properties": {
        "id": "013908",
        "title": "全家平鎮南勢店",
        "address": "桃園市平鎮區金星里中豐路南勢二段２０６號１樓",
        "post": "324",
        "all": "SWEETPOTATO,WiFi,Preorder",
        "marker-color": "#01ac50"
      },
      "geometry": {
        "coordinates": [
          121.21024928,
          24.91349785
        ],
        "type": "Point"
      },
      "id": "013908"
    },
    {
      "type": "Feature",
      "properties": {
        "id": "013910",
        "title": "全家潭子大豐店",
        "address": "台中市潭子區大豐里大豐路三段１３６號",
        "post": "427",
        "all": "SWEETPOTATO,Photo,WiFi,Toilet,Rest,COFFEEDeliver,Preorder,Meatballs",
        "marker-color": "#01ac50"
      },
      "geometry": {
        "coordinates": [
          120.692368,
          24.222791
        ],
        "type": "Point"
      },
      "id": "013910"
    },
    {
      "type": "Feature",
      "properties": {
        "id": "013911",
        "title": "全家台中睿景店",
        "address": "台中市北屯區太原路三段８４９號",
        "post": "406",
        "all": "SWEETPOTATO,Smoothie,Photo,WiFi,icecream,Parking,Rest,oneice,twoice,Preorder,Rpotato,SCoffee,Meatballs,costco",
        "marker-color": "#01ac50"
      },