{
  "type": "FeatureCollection",
  "title": "Familymart",
  "features": [
    {
      "type": "Feature",
      "properties": {
        "id": "002353",
        "title": "全家淡水登峰店",
        "address": "新北市淡水區中正東路二段27號2樓",
        "post": "251",
        "all": "SWEETPOTATO,WiFi,icecream,Rest,oneice,twoice,COFFEEDeliver,Kantoni,Preorder,FishPatty,SCoffee",
        "marker-color": "#01ac50"
      },
      "geometry": {
        "coordinates": [
          121.45945259,
          25.15678644
        ],
        "type": "Point"
      },
      "id": "002353"
    },
    {
      "type": "Feature",
      "properties": {
        "id": "002816",
        "title": "全家板橋板農店",
        "address": "新北市板橋區府中路29—1號1樓",
        "post": "220",
        "all": "SWEETPOTATO,WiFi,icecream,Rest,oneice,twoice,COFFEEDeliver,SUNMAI,Kantoni,bbqchicken,Preorder,FishPatty,Rpotato,SCoffee",
        "marker-color": "#01ac50"
      },
      "geometry": {
        "coordinates": [
          121.458585,
          25.008431
        ],
        "type": "Point"
      },
      "id": "002816"
    },
    {
      "type": "Feature",
      "properties": {
        "id": "003244",
        "title": "全家台中後龍店",
        "address": "台中市西區後龍街58號民權路302號",
        "post": "403",
        "all": "SWEETPOTATO,WiFi,icecream,Rest,oneice,twoice,COFFEEDeliver,Kantoni,Preorder",
        "marker-color": "#01ac50"
      },
      "geometry": {
        "coordinates": [
          120.670059,
          24.147406
        ],
        "type": "Point"
      },
      "id": "003244"
    },
    {
      "type": "Feature",
      "properties": {
        "id": "003564",
        "title": "全家溪湖雙溪店",
        "address": "彰化縣溪湖鎮彰水路二段745號1樓",
        "post": "514",
        "all": "SWEETPOTATO,Smoothie,Photo,WiFi,icecream,Toilet,Rest,oneice,twoice,COFFEEDeliver,Kantoni,Preorder",
        "marker-color": "#01ac50"
      },
      "geometry": {
        "coordinates": [
          120.4804146,
          23.9509479
        ],
        "type": "Point"
      },
      "id": "003564"
    },
    {
      "type": "Feature",
      "properties": {
        "id": "004114",
        "title": "全家台中惠中店",
        "address": "台中市南屯區惠中路三段46號,48號,50號",
        "post": "408",
        "all": "SWEETPOTATO,WiFi,icecream,Toilet,Rest,oneice,twoice,COFFEEDeliver,Kantoni,Preorder",
        "marker-color": "#01ac50"
      },
      "geometry": {
        "coordinates": [
          120.640406,
          24.148619
        ],
        "type": "Point"
      },
      "id": "004114"
    },
    {
      "type": "Feature",
      "properties": {
        "id": "005989",
        "title": "全家中賓店",
        "address": "台北市中山區中山北路二段59之3號1樓",
        "post": "104",
        "all": "SWEETPOTATO,Smoothie,WiFi,icecream,oneice,twoice,COFFEEDeliver,Kantoni,Preorder,Rpotato,SCoffee",
        "marker-color": "#01ac50"
      },
      "geometry": {
        "coordinates": [
          121.522976,
          25.056037
        ],
        "type": "Point"
      },
      "id": "005989"
    },
    {
      "type": "Feature",
      "properties": {
        "id": "006598",
        "title": "全家台醫店",
        "address": "台北市中正區中山南路7號1樓",
        "post": "100",
        "all": "SWEETPOTATO,icecream,oneice,twoice,COFFEEDeliver,Kantoni,Preorder,Rpotato,SCoffee",
        "marker-color": "#01ac50"
      },
      "geometry": {
        "coordinates": [
          121.518534,
          25.040793
        ],
        "type": "Point"
      },
      "id": "006598"
    },
    {
      "type": "Feature",
      "properties": {
        "id": "008350",
        "title": "全家新城佳山店",
        "address": "花蓮縣新城鄉佳林村佳林105號",
        "post": "971",
        "all": "Rest,veg,Kantoni,Preorder",
        "marker-color": "#01ac50"
      },
      "geometry": {
        "coordinates": [
          121.59065373,
          24.03651854
        ],
        "type": "Point"
      },
      "id": "008350"
    },
    {
      "type": "Feature",
      "properties": {
        "id": "008854",
        "title": "全家台中儷晶店",
        "address": "台中市西屯區青海路二段153號",
        "post": "407",
        "all": "SWEETPOTATO,WiFi,icecream,Rest,veg,oneice,COFFEEDeliver,SUNMAI,Kantoni,TANHOU,Preorder,Rpotato",
        "marker-color": "#01ac50"
      },
      "geometry": {
        "coordinates": [
          120.646681,
          24.168873
        ],
        "type": "Point"
      },
      "id": "008854"
    },
    {
      "type": "Feature",
      "properties": {
        "id": "009159",
        "title": "全家中和橋安店",
        "address": "新北市中和區橋和路120號",
        "post": "235",
        "all": "SWEETPOTATO,Photo,WiFi,Rest,COFFEEDeliver,Kantoni,Preorder",
        "marker-color": "#01ac50"
      },
      "geometry": {
        "coordinates": [
          121.492203,
          25.005742
        ],
        "type": "Point"
      },
      "id": "009159"
    },
    {
      "type": "Feature",
      "properties": {
        "id": "009489",
        "title": "全家新實店",
        "address": "臺北市北投區實踐街51號1樓",
        "post": "112",
        "all": "SWEETPOTATO,Smoothie,WiFi,icecream,Rest,oneice,twoice,Preorder",
        "marker-color": "#01ac50"
      },
      "geometry": {
        "coordinates": [
          121.509529,
          25.115327
        ],
        "type": "Point"
      },
      "id": "009489"
    },
    {
      "type": "Feature",
      "properties": {
        "id": "010358",
        "title": "全家胡適店",
        "address": "台北市南港區舊莊街一段3巷16號",
        "post": "115",
        "all": "SWEETPOTATO,WiFi,Preorder",
        "marker-color": "#01ac50"
      },
      "geometry": {
        "coordinates": [
          121.618172,
          25.042341
        ],
        "type": "Point"
      },
      "id": "010358"
    },
    {
      "type": "Feature",
      "properties": {
        "id": "010379",
        "title": "全家板橋金巨蛋店",
        "address": "新北市板橋區民生路二段250號1樓及b1",
        "post": "220",
        "all": "SWEETPOTATO,WiFi,Preorder",
        "marker-color": "#01ac50"
      },
      "geometry": {
        "coordinates": [
          121.468481,
          25.023293
        ],
        "type": "Point"
      },
      "id": "010379"
    },
    {
      "type": "Feature",
      "properties": {
        "id": "010459",
        "title": "全家大里順發店",
        "address": "台中市大里區永隆路209號壹樓",
        "post": "412",
        "all": "SWEETPOTATO,Photo,WiFi,icecream,Toilet,Rest,oneice,twoice,COFFEEDeliver,Kantoni,TANHOU,Preorder",
        "marker-color": "#01ac50"
      },
      "geometry": {
        "coordinates": [
          120.676509,
          24.107962
        ],
        "type": "Point"
      },
      "id": "010459"
    },
    {
      "type": "Feature",
      "properties": {
        "id": "010629",
        "title": "全家汐止康寧店",
        "address": "新北市汐止區康寧街169巷23號1樓",
        "post": "221",
        "all": "SWEETPOTATO,WiFi,Rest,Kantoni,Preorder",
        "marker-color": "#01ac50"
      },
      "geometry": {
        "coordinates": [
          121.622686,
          25.068253
        ],
        "type": "Point"
      },
      "id": "010629"
    },
    {
      "type": "Feature",
      "properties": {
        "id": "010822",
        "title": "全家基隆經國店",
        "address": "基隆市中山區復興路336-1號",
        "post": "203",
        "all": "SWEETPOTATO,Photo,WiFi,icecream,Toilet,Rest,oneice,twoice,COFFEEDeliver,Kantoni,Preorder,Rpotato",
        "marker-color": "#01ac50"
      },
      "geometry": {
        "coordinates": [
          121.727983,
          25.150676
        ],
        "type": "Point"
      },
      "id": "010822"
    },
    {
      "type": "Feature",
      "properties": {
        "id": "010836",
        "title": "全家高雄新樂店",
        "address": "高雄市鹽埕區新樂街238號",
        "post": "803",
        "all": "SWEETPOTATO,Photo,WiFi,icecream,Toilet,Rest,oneice,twoice,COFFEEDeliver,SUNMAI,Kantoni,TANHOU,Preorder",
        "marker-color": "#01ac50"
      },
      "geometry": {
        "coordinates": [
          120.28050471,
          22.62636235
        ],
        "type": "Point"
      },
      "id": "010836"
    },
    {
      "type": "Feature",
      "properties": {
        "id": "010855",
        "title": "全家永和保安店",
        "address": "新北市永和區永貞路387號",
        "post": "234",
        "all": "SWEETPOTATO,WiFi,veg,Kantoni,Preorder",
        "marker-color": "#01ac50"
      },
      "geometry": {
        "coordinates": [
          121.507929,
          25.008664
        ],
        "type": "Point"
      },
      "id": "010855"
    },
    {
      "type": "Feature",
      "properties": {
        "id": "010926",
        "title": "全家新店民德店",
        "address": "新北市新店區民族路6號",
        "post": "231",
        "all": "icecream,Rest,oneice,Preorder",
        "marker-color": "#01ac50"
      },
      "geometry": {
        "coordinates": [
          121.541739,
          24.978996
        ],
        "type": "Point"
      },
      "id": "010926"
    },
    {
      "type": "Feature",
      "properties": {
        "id": "010980",
        "title": "全家北鑫店",
        "address": "台北市南港區中坡南路15號",
        "post": "115",
        "all": "SWEETPOTATO,WiFi,Preorder",
        "marker-color": "#01ac50"
      },
      "geometry": {
        "coordinates": [
          121.582921,
          25.04349
        ],
        "type": "Point"
      },
      "id": "010980"
    },
    {
      "type": "Feature",
      "properties": {
        "id": "011059",
        "title": "全家蘇澳車頭店",
        "address": "宜蘭縣蘇澳鎮中山路一段63號一樓",
        "post": "270",
        "all": "WiFi,Rest,Preorder",
        "marker-color": "#01ac50"
      },
      "geometry": {
        "coordinates": [
          121.851526,
          24.596011
        ],
        "type": "Point"
      },
      "id": "011059"
    },
    {
      "type": "Feature",
      "properties": {
        "id": "011177",
        "title": "全家永和騎士店",
        "address": "新北市永和區民權路53號1樓",
        "post": "234",
        "all": "SWEETPOTATO,Photo,WiFi,icecream,Rest,oneice,Preorder",
        "marker-color": "#01ac50"
      },
      "geometry": {
        "coordinates": [
          121.520006,
          24.996832
        ],
        "type": "Point"
      },
      "id": "011177"
    },
    {
      "type": "Feature",
      "properties": {
        "id": "011273",
        "title": "全家松醫店",
        "address": "台北市松山區健康路158號",
        "post": "105",
        "all": "SWEETPOTATO,Photo,WiFi,icecream,Toilet,Rest,oneice,Kantoni,Preorder",
        "marker-color": "#01ac50"
      },
      "geometry": {
        "coordinates": [
          121.557897,
          25.053463
        ],
        "type": "Point"
      },
      "id": "011273"
    },
    {
      "type": "Feature",
      "properties": {
        "id": "011344",
        "title": "全家六甲民生附店",
        "address": "台南市六甲區工研路8號",
        "post": "734",
        "all": "Preorder",
        "marker-color": "#01ac50"
      },
      "geometry": {
        "coordinates": [
          120.370118,
          23.229693
        ],
        "type": "Point"
      },
      "id": "011344"
    },
    {
      "type": "Feature",
      "properties": {
        "id": "011489",
        "title": "全家新營國道南店",
        "address": "臺南市後壁區竹新里新厝69號",
        "post": "731",
        "all": "SWEETPOTATO,WiFi,icecream,oneice,twoice,COFFEEDeliver,Kantoni,Preorder,FishPatty",
        "marker-color": "#01ac50"
      },
      "geometry": {
        "coordinates": [
          120.312042,
          23.340737
        ],
        "type": "Point"
      },
      "id": "011489"
    },
    {
      "type": "Feature",
      "properties": {
        "id": "011531",
        "title": "全家中和南勢角店",
        "address": "新北市中和區南山路399巷10號1樓",
        "post": "235",
        "all": "SWEETPOTATO,WiFi,Rest,Preorder",
        "marker-color": "#01ac50"
      },
      "geometry": {
        "coordinates": [
          121.507175,
          24.990542
        ],
        "type": "Point"
      },
      "id": "011531"
    },
    {
      "type": "Feature",
      "properties": {
        "id": "011655",
        "title": "全家樹林新中店",
        "address": "新北市樹林區中山路三段107號及107-1號",
        "post": "238",
        "all": "SWEETPOTATO,Smoothie,WiFi,icecream,Toilet,Rest,oneice,COFFEEDeliver,Kantoni,Preorder",
        "marker-color": "#01ac50"
      },
      "geometry": {
        "coordinates": [
          121.399777,
          24.974555
        ],
        "type": "Point"
      },
      "id": "011655"
    },
    {
      "type": "Feature",
      "properties": {
        "id": "011685",
        "title": "全家宜蘭廣鑫店",
        "address": "宜蘭縣冬山鄉廣興路267號",
        "post": "269",
        "all": "WiFi,icecream,Parking,Toilet,Rest,oneice,Preorder",
        "marker-color": "#01ac50"
      },
      "geometry": {
        "coordinates": [
          121.747386,
          24.669513
        ],
        "type": "Point"
      },
      "id": "011685"
    },
    {
      "type": "Feature",
      "properties": {
        "id": "011729",
        "title": "全家湖內正億店",
        "address": "高雄市湖內區正義一路210號",
        "post": "829",
        "all": "SWEETPOTATO,Smoothie,Photo,WiFi,Rest,Preorder",
        "marker-color": "#01ac50"
      },
      "geometry": {
        "coordinates": [
          120.236975,
          22.873736
        ],
        "type": "Point"
      },
      "id": "011729"
    },
    {
      "type": "Feature",
      "properties": {
        "id": "011838",
        "title": "全家和美頂美店",
        "address": "彰化縣和美鎮美寮路二段2號1樓",
        "post": "508",
        "all": "SWEETPOTATO,Smoothie,WiFi,icecream,Parking,Toilet,Rest,oneice,twoice,COFFEEDeliver,Kantoni,Preorder",
        "marker-color": "#01ac50"
      },
      "geometry": {
        "coordinates": [
          120.5169182,
          24.1125139
        ],
        "type": "Point"
      },
      "id": "011838"
    },
    {
      "type": "Feature",
      "properties": {
        "id": "011845",
        "title": "全家新竹元村店",
        "address": "新竹市香山區元培街197＆199號1樓",
        "post": "300",
        "all": "WiFi,Rest,Kantoni,Preorder",
        "marker-color": "#01ac50"
      },
      "geometry": {
        "coordinates": [
          120.933001990746,
          24.7827715046489
        ],
        "type": "Point"
      },
      "id": "011845"
    },
    {
      "type": "Feature",
      "properties": {
        "id": "011846",
        "title": "全家林園文林店",
        "address": "高雄市林園區東林西路137號",
        "post": "832",
        "all": "SWEETPOTATO,Photo,WiFi,icecream,Toilet,Rest,oneice,twoice,COFFEEDeliver,Preorder",
        "marker-color": "#01ac50"
      },
      "geometry": {
        "coordinates": [
          120.392377,
          22.503366
        ],
        "type": "Point"
      },
      "id": "011846"
    },
    {
      "type": "Feature",
      "properties": {
        "id": "011881",
        "title": "全家松指部店",
        "address": "臺北市松山區民權東路四段121號(松指部)",
        "post": "105",
        "all": "Kantoni,Preorder",
        "marker-color": "#01ac50"
      },
      "geometry": {
        "coordinates": [
          121.555797,
          25.062161
        ],
        "type": "Point"
      },
      "id": "011881"
    },
    {
      "type": "Feature",
      "properties": {
        "id": "011935",
        "title": "全家宜蘭大福店",
        "address": "宜蘭縣宜蘭市大福路一段43號,45號",
        "post": "260",
        "all": "SWEETPOTATO,WiFi,icecream,Toilet,Rest,oneice,twoice,COFFEEDeliver,Kantoni,Preorder",
        "marker-color": "#01ac50"
      },
      "geometry": {
        "coordinates": [
          121.770332,
          24.766968
        ],
        "type": "Point"
      },
      "id": "011935"
    },
    {
      "type": "Feature",
      "properties": {
        "id": "011938",
        "title": "全家中和景秀店",
        "address": "新北市中和區景平路71—2號",
        "post": "235",
        "all": "SWEETPOTATO,WiFi,icecream,Rest,veg,oneice,Preorder",
        "marker-color": "#01ac50"
      },
      "geometry": {
        "coordinates": [
          121.519392,
          24.991359
        ],
        "type": "Point"
      },
      "id": "011938"
    },
    {
      "type": "Feature",
      "properties": {
        "id": "011950",
        "title": "全家板橋振興店",
        "address": "新北市板橋區三民路一段31巷89弄3號",
        "post": "220",
        "all": "SWEETPOTATO,WiFi,icecream,Rest,veg,oneice,twoice,SUNMAI,Kantoni,Preorder",
        "marker-color": "#01ac50"
      },
      "geometry": {
        "coordinates": [
          121.481717,
          25.023383
        ],
        "type": "Point"
      },
      "id": "011950"
    },
    {
      "type": "Feature",
      "properties": {
        "id": "011968",
        "title": "全家彰化漢銘店",
        "address": "彰化縣彰化市中山路一段366號",
        "post": "500",
        "all": "SWEETPOTATO,Photo,WiFi,icecream,Rest,oneice,COFFEEDeliver,Kantoni,Preorder",
        "marker-color": "#01ac50"
      },
      "geometry": {
        "coordinates": [
          120.5357816,
          24.0612756
        ],
        "type": "Point"
      },
      "id": "011968"
    },
    {
      "type": "Feature",
      "properties": {
        "id": "011989",
        "title": "全家頭份雙民店",
        "address": "苗栗縣頭份市民族路196號1樓",
        "post": "351",
        "all": "SWEETPOTATO,WiFi,icecream,Rest,oneice,COFFEEDeliver,SUNMAI,Preorder",
        "marker-color": "#01ac50"
      },
      "geometry": {
        "coordinates": [
          120.903164,
          24.684829
        ],
        "type": "Point"
      },
      "id": "011989"
    },
    {
      "type": "Feature",
      "properties": {
        "id": "011990",
        "title": "全家台中東英店",
        "address": "台中市東區旱溪東路一段300號,301號1樓",
        "post": "401",
        "all": "SWEETPOTATO,Smoothie,WiFi,icecream,Toilet,Rest,veg,oneice,SUNMAI,Kantoni,TANHOU,Preorder",
        "marker-color": "#01ac50"
      },
      "geometry": {
        "coordinates": [
          120.700985,
          24.135262
        ],
        "type": "Point"
      },
      "id": "011990"
    },
    {
      "type": "Feature",
      "properties": {
        "id": "012008",
        "title": "全家新莊中原店",
        "address": "新北市新莊區中原路297號",
        "post": "242",
        "all": "SWEETPOTATO,WiFi,Toilet,Rest,Preorder",
        "marker-color": "#01ac50"
      },
      "geometry": {
        "coordinates": [
          121.447652,
          25.054248
        ],
        "type": "Point"
      },
      "id": "012008"
    },
    {
      "type": "Feature",
      "properties": {
        "id": "012015",
        "title": "全家鳥松濱湖店",
        "address": "高雄市鳥松區文前路3巷21-1號",
        "post": "833",
        "all": "SWEETPOTATO,Photo,WiFi,icecream,Toilet,Rest,veg,oneice,COFFEEDeliver,SUNMAI,FreshFruit,Preorder",
        "marker-color": "#01ac50"
      },
      "geometry": {
        "coordinates": [
          120.35839,
          22.662785
        ],
        "type": "Point"
      },
      "id": "012015"
    },
    {
      "type": "Feature",
      "properties": {
        "id": "012031",
        "title": "全家彰化彰南店",
        "address": "彰化縣彰化市彰南路三段302號,304號",
        "post": "500",
        "all": "SWEETPOTATO,WiFi,icecream,Rest,oneice,twoice,Kantoni,Preorder",
        "marker-color": "#01ac50"
      },
      "geometry": {
        "coordinates": [
          120.5989345,
          24.0813308
        ],
        "type": "Point"
      },
      "id": "012031"
    },
    {
      "type": "Feature",
      "properties": {
        "id": "012048",
        "title": "全家花蓮大愛店",
        "address": "花蓮縣花蓮市中央路三段707號(大愛樓地下室超商)",
        "post": "970",
        "all": "SWEETPOTATO,WiFi,Kantoni,FreshFruit,Preorder",
        "marker-color": "#01ac50"
      },
      "geometry": {
        "coordinates": [
          121.5922526,
          23.99574716
        ],
        "type": "Point"
      },
      "id": "012048"
    },
    {
      "type": "Feature",
      "properties": {
        "id": "012049",
        "title": "全家台中漢翔店",
        "address": "台中市西屯區漢翔路295號1樓",
        "post": "407",
        "all": "SWEETPOTATO,WiFi,icecream,Toilet,Rest,oneice,COFFEEDeliver,Preorder",
        "marker-color": "#01ac50"
      },
      "geometry": {
        "coordinates": [
          120.639657,
          24.184995
        ],
        "type": "Point"
      },
      "id": "012049"
    },
    {
      "type": "Feature",
      "properties": {
        "id": "012050",
        "title": "全家清水米糕店",
        "address": "臺中市清水區新興路119號",
        "post": "436",
        "all": "SWEETPOTATO,WiFi,icecream,Toilet,Rest,oneice,Preorder",
        "marker-color": "#01ac50"
      },
      "geometry": {
        "coordinates": [
          120.577715,
          24.271071
        ],
        "type": "Point"
      },
      "id": "012050"
    },
    {
      "type": "Feature",
      "properties": {
        "id": "012060",
        "title": "全家和美家美店",
        "address": "彰化縣和美鎮嘉佃路8號一樓",
        "post": "508",
        "all": "SWEETPOTATO,Smoothie,WiFi,icecream,Parking,Rest,oneice,Kantoni,Preorder",
        "marker-color": "#01ac50"
      },
      "geometry": {
        "coordinates": [
          120.4983532,
          24.0817013
        ],
        "type": "Point"
      },
      "id": "012060"
    },
    {
      "type": "Feature",
      "properties": {
        "id": "012061",
        "title": "全家台東豐樂店",
        "address": "台東縣台東市正氣北路526號一樓",
        "post": "950",
        "all": "SWEETPOTATO,Photo,WiFi,icecream,Rest,oneice,COFFEEDeliver,SUNMAI,Preorder",
        "marker-color": "#01ac50"
      },
      "geometry": {
        "coordinates": [
          121.1313509,
          22.7552026
        ],
        "type": "Point"
      },
      "id": "012061"
    },
    {
      "type": "Feature",
      "properties": {
        "id": "012067",
        "title": "全家新和店",
        "address": "台北市北投區中和街489號",
        "post": "112",
        "all": "SWEETPOTATO,WiFi,icecream,Rest,oneice,twoice,TANHOU,Preorder",
        "marker-color": "#01ac50"
      },
      "geometry": {
        "coordinates": [
          121.495048,
          25.145102
        ],
        "type": "Point"
      },
      "id": "012067"
    },
    {
      "type": "Feature",
      "properties": {
        "id": "012072",
        "title": "全家板橋華江店",
        "address": "新北市板橋區雙十路三段54號",
        "post": "220",
        "all": "SWEETPOTATO,WiFi,icecream,oneice,twoice,Preorder",
        "marker-color": "#01ac50"
      },
      "geometry": {
        "coordinates": [
          121.470944,
          25.03148
        ],
        "type": "Point"
      },
      "id": "012072"
    },
    {
      "type": "Feature",
      "properties": {
        "id": "012079",
        "title": "全家中壢柏德店",
        "address": "桃園市中壢區實踐路221號",
        "post": "320",
        "all": "SWEETPOTATO,WiFi,icecream,Rest,oneice,twoice,COFFEEDeliver,Kantoni,Preorder",
        "marker-color": "#01ac50"
      },
      "geometry": {
        "coordinates": [
          121.239081,
          24.957267
        ],
        "type": "Point"
      },
      "id": "012079"
    },
    {
      "type": "Feature",
      "properties": {
        "id": "012081",
        "title": "全家鹿港車站店",
        "address": "彰化縣鹿港鎮民權路202號",
        "post": "505",
        "all": "SWEETPOTATO,WiFi,icecream,Rest,oneice,Preorder",
        "marker-color": "#01ac50"
      },
      "geometry": {
        "coordinates": [
          120.4346833,
          24.0565051
        ],
        "type": "Point"
      },
      "id": "012081"
    },
    {
      "type": "Feature",
      "properties": {
        "id": "012102",
        "title": "全家高雄市府店",
        "address": "高雄市苓雅區苓雅一路195號",
        "post": "802",
        "all": "SWEETPOTATO,WiFi,icecream,oneice,Preorder",
        "marker-color": "#01ac50"
      },
      "geometry": {
        "coordinates": [
          120.31085,
          22.620979
        ],
        "type": "Point"
      },
      "id": "012102"
    },
    {
      "type": "Feature",
      "properties": {
        "id": "012111",
        "title": "全家新莊民本店",
        "address": "新北市新莊區民本街23巷2號1樓",
        "post": "242",
        "all": "SWEETPOTATO,WiFi,icecream,Toilet,Rest,oneice,TANHOU,Preorder,Rpotato",
        "marker-color": "#01ac50"
      },
      "geometry": {
        "coordinates": [
          121.428379,
          25.019704
        ],
        "type": "Point"
      },
      "id": "012111"
    },
    {
      "type": "Feature",
      "properties": {
        "id": "012113",
        "title": "全家五股新五義店",
        "address": "新北市五股區民義路一段109號1樓",
        "post": "248",
        "all": "SWEETPOTATO,WiFi,Toilet,Rest,Preorder",
        "marker-color": "#01ac50"
      },
      "geometry": {
        "coordinates": [
          121.43403,
          25.08646
        ],
        "type": "Point"
      },
      "id": "012113"
    },
    {
      "type": "Feature",
      "properties": {
        "id": "012120",
        "title": "全家麻豆黎明店",
        "address": "台南市麻豆區興國路46號1樓",
        "post": "721",
        "all": "SWEETPOTATO,WiFi,COFFEEDeliver,Preorder",
        "marker-color": "#01ac50"
      },
      "geometry": {
        "coordinates": [
          120.247791,
          23.179542
        ],
        "type": "Point"
      },
      "id": "012120"
    },
    {
      "type": "Feature",
      "properties": {
        "id": "012127",
        "title": "全家宏大店",
        "address": "台北市松山區敦化北路155巷3號1樓",
        "post": "105",
        "all": "SWEETPOTATO,Photo,WiFi,Rest,veg,Preorder,SCoffee",
        "marker-color": "#01ac50"
      },
      "geometry": {
        "coordinates": [
          121.549813,
          25.05424
        ],
        "type": "Point"
      },
      "id": "012127"
    },
    {
      "type": "Feature",
      "properties": {
        "id": "012128",
        "title": "全家新店新和店",
        "address": "新北市新店區永安街81號1樓",
        "post": "231",
        "all": "SWEETPOTATO,WiFi,Toilet,Rest,veg,TANHOU,FreshFruit,Preorder",
        "marker-color": "#01ac50"
      },
      "geometry": {
        "coordinates": [
          121.519839,
          24.986719
        ],
        "type": "Point"
      },
      "id": "012128"
    },
    {
      "type": "Feature",
      "properties": {
        "id": "012135",
        "title": "全家高雄美舞店",
        "address": "高雄市鼓山區美術東五路118號",
        "post": "804",
        "all": "SWEETPOTATO,WiFi,icecream,Toilet,Rest,oneice,twoice,COFFEEDeliver,Preorder",
        "marker-color": "#01ac50"
      },
      "geometry": {
        "coordinates": [
          120.291379,
          22.659175
        ],
        "type": "Point"
      },
      "id": "012135"
    },
    {
      "type": "Feature",
      "properties": {
        "id": "012152",
        "title": "全家新莊福基店",
        "address": "新北市新莊區化成路812號",
        "post": "242",
        "all": "SWEETPOTATO,WiFi,icecream,Toilet,Rest,oneice,twoice,Preorder",
        "marker-color": "#01ac50"
      },
      "geometry": {
        "coordinates": [
          121.465095,
          25.059688
        ],
        "type": "Point"
      },
      "id": "012152"
    },
    {
      "type": "Feature",
      "properties": {
        "id": "012163",
        "title": "全家石岡登峰店",
        "address": "台中市石岡區明德路179號1樓",
        "post": "422",
        "all": "SWEETPOTATO,Smoothie,WiFi,icecream,Toilet,Rest,oneice,twoice,COFFEEDeliver,Kantoni,Preorder",
        "marker-color": "#01ac50"
      },
      "geometry": {
        "coordinates": [
          120.774083,
          24.274469
        ],
        "type": "Point"
      },
      "id": "012163"
    },
    {
      "type": "Feature",
      "properties": {
        "id": "012168",
        "title": "全家埔里埔榮店",
        "address": "南投縣埔里鎮中山路一段237之7號1樓",
        "post": "545",
        "all": "SWEETPOTATO,Smoothie,WiFi,icecream,Parking,Rest,oneice,twoice,SUNMAI,Preorder",
        "marker-color": "#01ac50"
      },
      "geometry": {
        "coordinates": [
          120.99308,
          23.978547
        ],
        "type": "Point"
      },
      "id": "012168"
    },
    {
      "type": "Feature",
      "properties": {
        "id": "012171",
        "title": "全家新貿店",
        "address": "臺北市信義區信義路四段407號壹樓",
        "post": "110",
        "all": "SWEETPOTATO,WiFi,Rest,veg,Kantoni,FreshFruit,Preorder",
        "marker-color": "#01ac50"
      },
      "geometry": {
        "coordinates": [
          121.558895,
          25.033272
        ],
        "type": "Point"
      },
      "id": "012171"
    },
    {
      "type": "Feature",
      "properties": {
        "id": "012175",
        "title": "全家西螺廣福店",
        "address": "雲林縣西螺鎮光復西路2號",
        "post": "648",
        "all": "SWEETPOTATO,Smoothie,Photo,WiFi,icecream,Rest,oneice,COFFEEDeliver,TANHOU,Preorder",
        "marker-color": "#01ac50"
      },
      "geometry": {
        "coordinates": [
          120.466273,
          23.797763
        ],
        "type": "Point"
      },
      "id": "012175"
    },
    {
      "type": "Feature",
      "properties": {
        "id": "012190",
        "title": "全家新莊龍鳳店",
        "address": "新北市新莊區中正路729號",
        "post": "242",
        "all": "SWEETPOTATO,Photo,WiFi,icecream,Parking,Toilet,Rest,oneice,twoice,Kantoni,Preorder",
        "marker-color": "#01ac50"
      },
      "geometry": {
        "coordinates": [
          121.422849,
          25.028887
        ],
        "type": "Point"
      },
      "id": "012190"
    },
    {
      "type": "Feature",
      "properties": {
        "id": "012193",
        "title": "全家龍潭兄弟店",
        "address": "桃園市龍潭區民生路10號",
        "post": "325",
        "all": "SWEETPOTATO,WiFi,icecream,Rest,oneice,twoice,Preorder",
        "marker-color": "#01ac50"
      },
      "geometry": {
        "coordinates": [
          121.230038,
          24.848662
        ],
        "type": "Point"
      },
      "id": "012193"
    },
    {
      "type": "Feature",
      "properties": {
        "id": "012198",
        "title": "全家名間金交流店",
        "address": "南投縣名間鄉彰南路243號",
        "post": "551",
        "all": "SWEETPOTATO,WiFi,icecream,Parking,Rest,oneice,twoice,Kantoni,Preorder",
        "marker-color": "#01ac50"
      },
      "geometry": {
        "coordinates": [
          120.69739,
          23.84679
        ],
        "type": "Point"
      },
      "id": "012198"
    },
    {
      "type": "Feature",
      "properties": {
        "id": "012199",
        "title": "全家台南新安平店",
        "address": "臺南市安平區安平路177號1樓",
        "post": "708",
        "all": "SWEETPOTATO,WiFi,icecream,Rest,oneice,twoice,COFFEEDeliver,SUNMAI,Preorder",
        "marker-color": "#01ac50"
      },
      "geometry": {
        "coordinates": [
          120.161216,
          23.000149
        ],
        "type": "Point"
      },
      "id": "012199"
    },
    {
      "type": "Feature",
      "properties": {
        "id": "012220",
        "title": "全家豐禾店",
        "address": "台北市松山區民生東路三段130巷5弄2號",
        "post": "105",
        "all": "SWEETPOTATO,Photo,WiFi,Toilet,Rest,Preorder",
        "marker-color": "#01ac50"
      },
      "geometry": {
        "coordinates": [
          121.546337,
          25.056974
        ],
        "type": "Point"
      },
      "id": "012220"
    },
    {
      "type": "Feature",
      "properties": {
        "id": "012231",
        "title": "全家花蓮中福店",
        "address": "花蓮縣花蓮市中正路268號1樓",
        "post": "970",
        "all": "SWEETPOTATO,Smoothie,WiFi,Rest,TANHOU,Preorder",
        "marker-color": "#01ac50"
      },
      "geometry": {
        "coordinates": [
          121.60115948,
          23.97302823
        ],
        "type": "Point"
      },
      "id": "012231"
    },
    {
      "type": "Feature",
      "properties": {
        "id": "012237",
        "title": "全家淡水富山店",
        "address": "新北市淡水區水源街二段177巷67號",
        "post": "251",
        "all": "SWEETPOTATO,WiFi,Rest,veg,SUNMAI,Kantoni,Preorder,FishPatty",
        "marker-color": "#01ac50"
      },
      "geometry": {
        "coordinates": [
          121.45217177,
          25.17701004
        ],
        "type": "Point"
      },
      "id": "012237"
    },
    {
      "type": "Feature",
      "properties": {
        "id": "012247",
        "title": "全家竹北六家店",
        "address": "新竹縣竹北市文興路二段529號全部",
        "post": "302",
        "all": "SWEETPOTATO,WiFi,icecream,Toilet,Rest,veg,oneice,twoice,Kantoni,TANHOU,FreshFruit,Preorder,FishPatty,LCoffee,SCoffee",
        "marker-color": "#01ac50"
      },
      "geometry": {
        "coordinates": [
          121.037009,
          24.807042
        ],
        "type": "Point"
      },
      "id": "012247"
    },
    {
      "type": "Feature",
      "properties": {
        "id": "012250",
        "title": "全家麻豆興民店",
        "address": "台南市麻豆區興中路51號",
        "post": "721",
        "all": "SWEETPOTATO,WiFi,icecream,Toilet,Rest,oneice,COFFEEDeliver,Kantoni,Preorder",
        "marker-color": "#01ac50"
      },
      "geometry": {
        "coordinates": [
          120.249657,
          23.18379
        ],
        "type": "Point"
      },
      "id": "012250"
    },
    {
      "type": "Feature",
      "properties": {
        "id": "012254",
        "title": "全家新竹旺宏店",
        "address": "新竹市東區科學園區力行路16號",
        "post": "300",
        "all": "SWEETPOTATO,icecream,oneice,Kantoni,Preorder,FishPatty,SCoffee",
        "marker-color": "#01ac50"
      },
      "geometry": {
        "coordinates": [
          121.023583,
          24.766896
        ],
        "type": "Point"
      },
      "id": "012254"
    },
    {
      "type": "Feature",
      "properties": {
        "id": "012255",
        "title": "全家中和新秀店",
        "address": "新北市中和區秀朗路三段44號1樓",
        "post": "235",
        "all": "SWEETPOTATO,Photo,WiFi,Toilet,Rest,veg,SUNMAI,Kantoni,TANHOU,Preorder",
        "marker-color": "#01ac50"
      },
      "geometry": {
        "coordinates": [
          121.526352,
          24.995752
        ],
        "type": "Point"
      },
      "id": "012255"
    },
    {
      "type": "Feature",
      "properties": {
        "id": "012257",
        "title": "全家三重菜寮店",
        "address": "新北市三重區重新路三段126號1樓",
        "post": "241",
        "all": "SWEETPOTATO,WiFi,icecream,Toilet,Rest,veg,oneice,twoice,Kantoni,Preorder",
        "marker-color": "#01ac50"
      },
      "geometry": {
        "coordinates": [
          121.492107,
          25.060109
        ],
        "type": "Point"
      },
      "id": "012257"
    },
    {
      "type": "Feature",
      "properties": {
        "id": "012271",
        "title": "全家員林正新店",
        "address": "彰化縣員林市三民東街350號",
        "post": "510",
        "all": "SWEETPOTATO,Photo,WiFi,icecream,Toilet,Rest,oneice,SUNMAI,Preorder",
        "marker-color": "#01ac50"
      },
      "geometry": {
        "coordinates": [
          120.5822364,
          23.9605798
        ],
        "type": "Point"
      },
      "id": "012271"
    },
    {
      "type": "Feature",
      "properties": {
        "id": "012279",
        "title": "全家台中熱河店",
        "address": "台中市北屯區熱河路二段166號1樓",
        "post": "406",
        "all": "SWEETPOTATO,WiFi,Rest,Preorder",
        "marker-color": "#01ac50"
      },
      "geometry": {
        "coordinates": [
          120.687929,
          24.172398
        ],
        "type": "Point"
      },
      "id": "012279"
    },
    {
      "type": "Feature",
      "properties": {
        "id": "012288",
        "title": "全家林口竹林店",
        "address": "新北市林口區林口路126號1F",
        "post": "244",
        "all": "SWEETPOTATO,Smoothie,WiFi,icecream,Rest,oneice,Kantoni,Preorder,FishPatty",
        "marker-color": "#01ac50"
      },
      "geometry": {
        "coordinates": [
          121.388479,
          25.081692
        ],
        "type": "Point"
      },
      "id": "012288"
    },
    {
      "type": "Feature",
      "properties": {
        "id": "012304",
        "title": "全家潭子摘星店",
        "address": "台中市潭子區雅豐街323號",
        "post": "427",
        "all": "SWEETPOTATO,WiFi,icecream,Toilet,Rest,oneice,COFFEEDeliver,Preorder",
        "marker-color": "#01ac50"
      },
      "geometry": {
        "coordinates": [
          120.694619,
          24.224383
        ],
        "type": "Point"
      },
      "id": "012304"
    },
    {
      "type": "Feature",
      "properties": {
        "id": "012305",
        "title": "全家潭子新圓通店",
        "address": "台中市潭子區勝利路58號1樓",
        "post": "427",
        "all": "SWEETPOTATO,WiFi,Toilet,Rest,COFFEEDeliver,Preorder",
        "marker-color": "#01ac50"
      },
      "geometry": {
        "coordinates": [
          120.701616,
          24.207923
        ],
        "type": "Point"
      },
      "id": "012305"
    },
    {
      "type": "Feature",
      "properties": {
        "id": "012307",
        "title": "全家蘆竹洛陽店",
        "address": "桃園市蘆竹區南榮村光明路一段119號121號一樓",
        "post": "338",
        "all": "SWEETPOTATO,Smoothie,Photo,WiFi,icecream,Toilet,Rest,oneice,twoice,COFFEEDeliver,Kantoni,TANHOU,FreshFruit,Preorder",
        "marker-color": "#01ac50"
      },
      "geometry": {
        "coordinates": [
          121.290365,
          25.044211
        ],
        "type": "Point"
      },
      "id": "012307"
    },
    {
      "type": "Feature",
      "properties": {
        "id": "012320",
        "title": "全家烏日新溪南店",
        "address": "台中市烏日區溪南路一段659號",
        "post": "414",
        "all": "SWEETPOTATO,Photo,WiFi,icecream,Toilet,Rest,oneice,twoice,COFFEEDeliver,Kantoni,Preorder",
        "marker-color": "#01ac50"
      },
      "geometry": {
        "coordinates": [
          120.643125,
          24.073064
        ],
        "type": "Point"
      },
      "id": "012320"
    },
    {
      "type": "Feature",
      "properties": {
        "id": "012328",
        "title": "全家日月光十二店",
        "address": "高雄市楠梓區內環北路115號",
        "post": "811",
        "all": "SWEETPOTATO,Kantoni,Preorder",
        "marker-color": "#01ac50"
      },
      "geometry": {
        "coordinates": [
          120.29895471,
          22.72334235
        ],
        "type": "Point"
      },
      "id": "012328"
    },
    {
      "type": "Feature",
      "properties": {
        "id": "012330",
        "title": "全家和平新谷關店",
        "address": "台中市和平區東關路一段127-5號",
        "post": "424",
        "all": "SWEETPOTATO,WiFi,icecream,Rest,oneice,twoice,SUNMAI,Kantoni,Preorder",
        "marker-color": "#01ac50"
      },
      "geometry": {
        "coordinates": [
          121.005618,
          24.202914
        ],
        "type": "Point"
      },
      "id": "012330"
    },
    {
      "type": "Feature",
      "properties": {
        "id": "012355",
        "title": "全家淡水旭陞店",
        "address": "新北市淡水區新生街53號1樓",
        "post": "251",
        "all": "SWEETPOTATO,WiFi,Rest,Kantoni,Preorder",
        "marker-color": "#01ac50"
      },
      "geometry": {
        "coordinates": [
          121.44053565,
          25.17480851
        ],
        "type": "Point"
      },
      "id": "012355"
    },
    {
      "type": "Feature",
      "properties": {
        "id": "012373",
        "title": "全家中和勝鴻店",
        "address": "新北市中和區中山路二段2巷45弄1號1樓",
        "post": "235",
        "all": "SWEETPOTATO,WiFi,icecream,Rest,oneice,Kantoni,Preorder",
        "marker-color": "#01ac50"
      },
      "geometry": {
        "coordinates": [
          121.502347,
          25.006899
        ],
        "type": "Point"
      },
      "id": "012373"
    },
    {
      "type": "Feature",
      "properties": {
        "id": "012388",
        "title": "全家竹南新豐店",
        "address": "苗栗縣竹南鎮公義路136號6樓",
        "post": "350",
        "all": "SWEETPOTATO,Kantoni,Preorder",
        "marker-color": "#01ac50"
      },
      "geometry": {
        "coordinates": [
          120.882409,
          24.696518
        ],
        "type": "Point"
      },
      "id": "012388"
    },
    {
      "type": "Feature",
      "properties": {
        "id": "012395",
        "title": "全家中和福順店",
        "address": "新北市中和區景平路708號",
        "post": "235",
        "all": "SWEETPOTATO,Photo,WiFi,icecream,Rest,oneice,Preorder",
        "marker-color": "#01ac50"
      },
      "geometry": {
        "coordinates": [
          121.496814,
          25.002648
        ],
        "type": "Point"
      },
      "id": "012395"
    },
    {
      "type": "Feature",
      "properties": {
        "id": "012398",
        "title": "全家大園蓮園店",
        "address": "桃園市大園區大觀路602號",
        "post": "337",
        "all": "SWEETPOTATO,WiFi,icecream,Rest,veg,oneice,TANHOU,Preorder",
        "marker-color": "#01ac50"
      },
      "geometry": {
        "coordinates": [
          121.175656,
          25.062329
        ],
        "type": "Point"
      },
      "id": "012398"
    },
    {
      "type": "Feature",
      "properties": {
        "id": "012406",
        "title": "全家高雄榮安店",
        "address": "高雄市前金區自強一路60,62,64號1樓",
        "post": "801",
        "all": "SWEETPOTATO,Photo,WiFi,icecream,Rest,oneice,COFFEEDeliver,Preorder",
        "marker-color": "#01ac50"
      },
      "geometry": {
        "coordinates": [
          120.29349662287,
          22.6307630580173
        ],
        "type": "Point"
      },
      "id": "012406"
    },
    {
      "type": "Feature",
      "properties": {
        "id": "012413",
        "title": "全家汐止亞太二店",
        "address": "新北市汐止區新台五路一段82至116號,Ｄ8—2號",
        "post": "221",
        "all": "SWEETPOTATO,icecream,oneice,Kantoni,Preorder,FishPatty,SCoffee",
        "marker-color": "#01ac50"
      },
      "geometry": {
        "coordinates": [
          121.647221,
          25.060325
        ],
        "type": "Point"
      },
      "id": "012413"
    },
    {
      "type": "Feature",
      "properties": {
        "id": "012415",
        "title": "全家五結興盛店",
        "address": "宜蘭縣五結鄉五結路三段751號1F",
        "post": "268",
        "all": "SWEETPOTATO,WiFi,Rest,Kantoni,Preorder",
        "marker-color": "#01ac50"
      },
      "geometry": {
        "coordinates": [
          121.776103,
          24.681816
        ],
        "type": "Point"
      },
      "id": "012415"
    },
    {
      "type": "Feature",
      "properties": {
        "id": "012416",
        "title": "全家泰山麗池店",
        "address": "新北市泰山區泰林路二段518號",
        "post": "243",
        "all": "SWEETPOTATO,Smoothie,WiFi,Toilet,Rest,Preorder",
        "marker-color": "#01ac50"
      },
      "geometry": {
        "coordinates": [
          121.42414,
          25.063967
        ],
        "type": "Point"
      },
      "id": "012416"
    },
    {
      "type": "Feature",
      "properties": {
        "id": "012424",
        "title": "全家銅鑼新福興店",
        "address": "苗栗縣銅鑼鄉福興村13鄰平陽路40-6號1樓",
        "post": "366",
        "all": "SWEETPOTATO,WiFi,icecream,Toilet,Rest,oneice,COFFEEDeliver,Preorder",
        "marker-color": "#01ac50"
      },
      "geometry": {
        "coordinates": [
          120.789301,
          24.492766
        ],
        "type": "Point"
      },
      "id": "012424"
    },
    {
      "type": "Feature",
      "properties": {
        "id": "012430",
        "title": "全家南庄桂花園店",
        "address": "苗栗縣南庄鄉南江村5鄰東江89號1樓",
        "post": "353",
        "all": "SWEETPOTATO,WiFi,icecream,Rest,oneice,COFFEEDeliver,SUNMAI,Kantoni,Preorder",
        "marker-color": "#01ac50"
      },
      "geometry": {
        "coordinates": [
          121.001364,
          24.59538
        ],
        "type": "Point"
      },
      "id": "012430"
    },
    {
      "type": "Feature",
      "properties": {
        "id": "012442",
        "title": "全家高雄大興店",
        "address": "高雄市三民區大裕路38號",
        "post": "807",
        "all": "SWEETPOTATO,WiFi,icecream,Toilet,Rest,oneice,twoice,COFFEEDeliver,Kantoni,Preorder",
        "marker-color": "#01ac50"
      },
      "geometry": {
        "coordinates": [
          120.328823,
          22.65415
        ],
        "type": "Point"
      },
      "id": "012442"
    },
    {
      "type": "Feature",
      "properties": {
        "id": "012451",
        "title": "全家台中新忠勇店",
        "address": "台中市南屯區忠勇路76之3號",
        "post": "408",
        "all": "SWEETPOTATO,WiFi,icecream,Toilet,Rest,oneice,twoice,COFFEEDeliver,Preorder",
        "marker-color": "#01ac50"
      },
      "geometry": {
        "coordinates": [
          120.616105,
          24.151736
        ],
        "type": "Point"
      },
      "id": "012451"
    },
    {
      "type": "Feature",
      "properties": {
        "id": "012459",
        "title": "全家嘉義光路店",
        "address": "嘉義市西區民生南路528號1樓",
        "post": "600",
        "all": "SWEETPOTATO,Photo,WiFi,icecream,Toilet,Rest,oneice,COFFEEDeliver,Preorder",
        "marker-color": "#01ac50"
      },
      "geometry": {
        "coordinates": [
          120.443386,
          23.459367
        ],
        "type": "Point"
      },
      "id": "012459"
    },
    {
      "type": "Feature",
      "properties": {
        "id": "012461",
        "title": "全家台南新和店",
        "address": "台南市南區新建路47號1樓",
        "post": "702",
        "all": "WiFi,icecream,Toilet,Rest,oneice,COFFEEDeliver,Kantoni,Preorder",
        "marker-color": "#01ac50"
      },
      "geometry": {
        "coordinates": [
          120.185542,
          22.966965
        ],
        "type": "Point"
      },
      "id": "012461"
    },
    {
      "type": "Feature",
      "properties": {
        "id": "012464",
        "title": "全家淡水新江店",
        "address": "新北市淡水區中山北路二段188巷16號1樓",
        "post": "251",
        "all": "SWEETPOTATO,WiFi,icecream,Rest,oneice,Preorder",
        "marker-color": "#01ac50"
      },
      "geometry": {
        "coordinates": [
          121.44528326,
          25.18510485
        ],
        "type": "Point"
      },
      "id": "012464"
    },
    {
      "type": "Feature",
      "properties": {
        "id": "012473",
        "title": "全家新店新陽店",
        "address": "新北市新店區花園一路一段2號一樓",
        "post": "231",
        "all": "SWEETPOTATO,WiFi,Rest,veg,TANHOU,Preorder",
        "marker-color": "#01ac50"
      },
      "geometry": {
        "coordinates": [
          121.550937,
          24.93418
        ],
        "type": "Point"
      },
      "id": "012473"
    },
    {
      "type": "Feature",
      "properties": {
        "id": "012475",
        "title": "全家永和秀成店",
        "address": "新北市永和區成功路一段137,139號",
        "post": "234",
        "all": "SWEETPOTATO,WiFi,icecream,Rest,oneice,Preorder",
        "marker-color": "#01ac50"
      },
      "geometry": {
        "coordinates": [
          121.526913,
          25.001566
        ],
        "type": "Point"
      },
      "id": "012475"
    },
    {
      "type": "Feature",
      "properties": {
        "id": "012478",
        "title": "全家大湖新南昌店",
        "address": "苗栗縣大湖鄉南昌路20號",
        "post": "364",
        "all": "SWEETPOTATO,WiFi,icecream,Toilet,Rest,oneice,twoice,Kantoni,Preorder",
        "marker-color": "#01ac50"
      },
      "geometry": {
        "coordinates": [
          120.866673,
          24.39763
        ],
        "type": "Point"
      },
      "id": "012478"
    },
    {
      "type": "Feature",
      "properties": {
        "id": "012487",
        "title": "全家湖口新安宅店",
        "address": "新竹縣湖口鄉光復東路133號",
        "post": "303",
        "all": "SWEETPOTATO,WiFi,Toilet,Rest,Kantoni,Preorder",
        "marker-color": "#01ac50"
      },
      "geometry": {
        "coordinates": [
          121.029896,
          24.869592
        ],
        "type": "Point"
      },
      "id": "012487"
    },
    {
      "type": "Feature",
      "properties": {
        "id": "012491",
        "title": "全家大雅中科店",
        "address": "台中市大雅區中清路四段581號",
        "post": "428",
        "all": "SWEETPOTATO,WiFi,icecream,Toilet,Rest,oneice,COFFEEDeliver,Kantoni,Preorder",
        "marker-color": "#01ac50"
      },
      "geometry": {
        "coordinates": [
          120.636148,
          24.234761
        ],
        "type": "Point"
      },
      "id": "012491"
    },
    {
      "type": "Feature",
      "properties": {
        "id": "012493",
        "title": "全家台中金豹店",
        "address": "台中市西屯區四川一街26號",
        "post": "407",
        "all": "SWEETPOTATO,WiFi,icecream,Toilet,Rest,oneice,COFFEEDeliver,SUNMAI,Kantoni,TANHOU,Preorder",
        "marker-color": "#01ac50"
      },
      "geometry": {
        "coordinates": [
          120.651399,
          24.163675
        ],
        "type": "Point"
      },
      "id": "012493"
    },
    {
      "type": "Feature",
      "properties": {
        "id": "012496",
        "title": "全家高雄明鳳店",
        "address": "高雄市前鎮區明鳳三路65號",
        "post": "806",
        "all": "SWEETPOTATO,WiFi,icecream,Toilet,Rest,oneice,COFFEEDeliver,SUNMAI,Kantoni,Preorder",
        "marker-color": "#01ac50"
      },
      "geometry": {
        "coordinates": [
          120.33672471,
          22.58588235
        ],
        "type": "Point"
      },
      "id": "012496"
    },
    {
      "type": "Feature",
      "properties": {
        "id": "012508",
        "title": "全家新莊中榮店",
        "address": "新北市新莊區中榮街84號",
        "post": "242",
        "all": "SWEETPOTATO,Smoothie,WiFi,Rest,Preorder",
        "marker-color": "#01ac50"
      },
      "geometry": {
        "coordinates": [
          121.448131,
          25.052862
        ],
        "type": "Point"
      },
      "id": "012508"
    },
    {
      "type": "Feature",
      "properties": {
        "id": "012510",
        "title": "全家龍潭龍聖店",
        "address": "桃園市龍潭區梅龍路189號1樓",
        "post": "325",
        "all": "SWEETPOTATO,WiFi,icecream,Rest,oneice,twoice,COFFEEDeliver,Preorder",
        "marker-color": "#01ac50"
      },
      "geometry": {
        "coordinates": [
          121.197519,
          24.87339
        ],
        "type": "Point"
      },
      "id": "012510"
    },
    {
      "type": "Feature",
      "properties": {
        "id": "012515",
        "title": "全家台中金南屯店",
        "address": "台中市南屯區南屯路二段159號",
        "post": "408",
        "all": "SWEETPOTATO,WiFi,icecream,Toilet,Rest,oneice,twoice,Preorder",
        "marker-color": "#01ac50"
      },
      "geometry": {
        "coordinates": [
          120.651418,
          24.13601
        ],
        "type": "Point"
      },
      "id": "012515"
    },
    {
      "type": "Feature",
      "properties": {
        "id": "012517",
        "title": "全家下營中山店",
        "address": "台南市下營區中山路二段32號",
        "post": "735",
        "all": "SWEETPOTATO,Smoothie,WiFi,COFFEEDeliver,Preorder",
        "marker-color": "#01ac50"
      },
      "geometry": {
        "coordinates": [
          120.260924,
          23.234249
        ],
        "type": "Point"
      },
      "id": "012517"
    },
    {
      "type": "Feature",
      "properties": {
        "id": "012522",
        "title": "全家東港東光店",
        "address": "屏東縣東港鎮長春二路206號",
        "post": "928",
        "all": "SWEETPOTATO,Photo,WiFi,icecream,Parking,Toilet,Rest,oneice,twoice,COFFEEDeliver,Kantoni,Preorder",
        "marker-color": "#01ac50"
      },
      "geometry": {
        "coordinates": [
          120.459347,
          22.467366
        ],
        "type": "Point"
      },
      "id": "012522"
    },
    {
      "type": "Feature",
      "properties": {
        "id": "012536",
        "title": "全家沙鹿鎮平店",
        "address": "台中市沙鹿區鎮南路二段95號1樓",
        "post": "433",
        "all": "SWEETPOTATO,WiFi,Toilet,Rest,COFFEEDeliver,Preorder",
        "marker-color": "#01ac50"
      },
      "geometry": {
        "coordinates": [
          120.569558,
          24.219574
        ],
        "type": "Point"
      },
      "id": "012536"
    },
    {
      "type": "Feature",
      "properties": {
        "id": "012544",
        "title": "全家新林森店",
        "address": "台北市中山區林森北路630號1樓",
        "post": "104",
        "all": "SWEETPOTATO,Photo,WiFi,icecream,Rest,oneice,Kantoni,Preorder",
        "marker-color": "#01ac50"
      },
      "geometry": {
        "coordinates": [
          121.52559,
          25.067598
        ],
        "type": "Point"
      },
      "id": "012544"
    },
    {
      "type": "Feature",
      "properties": {
        "id": "012550",
        "title": "全家三重成功店",
        "address": "新北市三重區成功路145巷45號47號一樓",
        "post": "241",
        "all": "SWEETPOTATO,WiFi,Toilet,Rest,COFFEEDeliver,Preorder",
        "marker-color": "#01ac50"
      },
      "geometry": {
        "coordinates": [
          121.487891,
          25.053593
        ],
        "type": "Point"
      },
      "id": "012550"
    },
    {
      "type": "Feature",
      "properties": {
        "id": "012561",
        "title": "全家彰化金馬店",
        "address": "彰化縣彰化市彰馬路246之1號",
        "post": "500",
        "all": "SWEETPOTATO,Smoothie,Photo,WiFi,Toilet,Rest,COFFEEDeliver,Kantoni,Preorder",
        "marker-color": "#01ac50"
      },
      "geometry": {
        "coordinates": [
          120.5128024,
          24.0638961
        ],
        "type": "Point"
      },
      "id": "012561"
    },
    {
      "type": "Feature",
      "properties": {
        "id": "012563",
        "title": "全家屏東長安店",
        "address": "屏東縣屏東市光復路348號一樓",
        "post": "900",
        "all": "SWEETPOTATO,WiFi,Toilet,Rest,COFFEEDeliver,Preorder",
        "marker-color": "#01ac50"
      },
      "geometry": {
        "coordinates": [
          120.474496,
          22.668941
        ],
        "type": "Point"
      },
      "id": "012563"
    },
    {
      "type": "Feature",
      "properties": {
        "id": "012565",
        "title": "全家新城嘉新店",
        "address": "花蓮縣新城鄉嘉新村花師街37號一樓",
        "post": "971",
        "all": "SWEETPOTATO,Smoothie,veg,Kantoni,Preorder",
        "marker-color": "#01ac50"
      },
      "geometry": {
        "coordinates": [
          121.61588625,
          24.0085904
        ],
        "type": "Point"
      },
      "id": "012565"
    },
    {
      "type": "Feature",
      "properties": {
        "id": "012583",
        "title": "全家新竹鐵支店",
        "address": "新竹市東區鐵道路一段28巷79號1樓",
        "post": "300",
        "all": "SWEETPOTATO,WiFi,icecream,Toilet,Rest,veg,oneice,twoice,Kantoni,TANHOU,FreshFruit,Preorder,FishPatty,Rpotato",
        "marker-color": "#01ac50"
      },
      "geometry": {
        "coordinates": [
          120.9865836,
          24.8108714
        ],
        "type": "Point"
      },
      "id": "012583"
    },
    {
      "type": "Feature",
      "properties": {
        "id": "012586",
        "title": "全家淡水麗景店",
        "address": "新北市淡水區學府路30號1樓",
        "post": "251",
        "all": "SWEETPOTATO,WiFi,Toilet,COFFEEDeliver,Preorder",
        "marker-color": "#01ac50"
      },
      "geometry": {
        "coordinates": [
          121.44780783,
          25.16859622
        ],
        "type": "Point"
      },
      "id": "012586"
    },
    {
      "type": "Feature",
      "properties": {
        "id": "012587",
        "title": "全家宜蘭內城店",
        "address": "宜蘭縣員山鄉內城路455號1樓",
        "post": "264",
        "all": "SWEETPOTATO,WiFi,Rest,Kantoni,Preorder",
        "marker-color": "#01ac50"
      },
      "geometry": {
        "coordinates": [
          121.689111,
          24.720708
        ],
        "type": "Point"
      },
      "id": "012587"
    },
    {
      "type": "Feature",
      "properties": {
        "id": "012588",
        "title": "全家永隆店",
        "address": "台北市信義區基隆路一段147巷7號",
        "post": "110",
        "all": "SWEETPOTATO,Photo,WiFi,icecream,Toilet,Rest,oneice,Preorder",
        "marker-color": "#01ac50"
      },
      "geometry": {
        "coordinates": [
          121.56614,
          25.0425
        ],
        "type": "Point"
      },
      "id": "012588"
    },
    {
      "type": "Feature",
      "properties": {
        "id": "012590",
        "title": "全家土城冠延店",
        "address": "新北市土城區延和路111號",
        "post": "236",
        "all": "SWEETPOTATO,WiFi,Rest,Preorder",
        "marker-color": "#01ac50"
      },
      "geometry": {
        "coordinates": [
          121.467808,
          24.990366
        ],
        "type": "Point"
      },
      "id": "012590"
    },
    {
      "type": "Feature",
      "properties": {
        "id": "012595",
        "title": "全家中埔和興店",
        "address": "嘉義縣中埔鄉和興村中山路五段943號",
        "post": "606",
        "all": "SWEETPOTATO,Photo,WiFi,icecream,Toilet,Rest,oneice,Preorder",
        "marker-color": "#01ac50"
      },
      "geometry": {
        "coordinates": [
          120.4597718,
          23.45315835
        ],
        "type": "Point"
      },
      "id": "012595"
    },
    {
      "type": "Feature",
      "properties": {
        "id": "012596",
        "title": "全家鳳山中崙店",
        "address": "高雄市鳳山區中崙四路1號",
        "post": "830",
        "all": "SWEETPOTATO,WiFi,Rest,Preorder",
        "marker-color": "#01ac50"
      },
      "geometry": {
        "coordinates": [
          120.352751,
          22.599192
        ],
        "type": "Point"
      },
      "id": "012596"
    },
    {
      "type": "Feature",
      "properties": {
        "id": "012598",
        "title": "全家屏東華盛店",
        "address": "屏東縣屏東市永大路66號一樓",
        "post": "900",
        "all": "SWEETPOTATO,WiFi,Rest,COFFEEDeliver,Preorder",
        "marker-color": "#01ac50"
      },
      "geometry": {
        "coordinates": [
          120.479067,
          22.661272
        ],
        "type": "Point"
      },
      "id": "012598"
    },
    {
      "type": "Feature",
      "properties": {
        "id": "012607",
        "title": "全家中和遠建店",
        "address": "新北市中和區建一路176號1樓",
        "post": "235",
        "all": "SWEETPOTATO,WiFi,Rest,Kantoni,Preorder,FishPatty,SCoffee",
        "marker-color": "#01ac50"
      },
      "geometry": {
        "coordinates": [
          121.487778,
          24.997336
        ],
        "type": "Point"
      },
      "id": "012607"
    },
    {
      "type": "Feature",
      "properties": {
        "id": "012608",
        "title": "全家新莊新園寧店",
        "address": "新北市新莊區建興街101號",
        "post": "242",
        "all": "SWEETPOTATO,Photo,WiFi,icecream,Rest,oneice,Kantoni,Preorder",
        "marker-color": "#01ac50"
      },
      "geometry": {
        "coordinates": [
          121.449688,
          25.039558
        ],
        "type": "Point"
      },
      "id": "012608"
    },
    {
      "type": "Feature",
      "properties": {
        "id": "012620",
        "title": "全家高雄藍天店",
        "address": "高雄市楠梓區藍昌路358號",
        "post": "811",
        "all": "SWEETPOTATO,Photo,WiFi,icecream,Toilet,Rest,oneice,twoice,COFFEEDeliver,SUNMAI,TANHOU,Preorder",
        "marker-color": "#01ac50"
      },
      "geometry": {
        "coordinates": [
          120.291355,
          22.722828
        ],
        "type": "Point"
      },
      "id": "012620"
    },
    {
      "type": "Feature",
      "properties": {
        "id": "012628",
        "title": "全家楊梅瑞平店",
        "address": "桃園市楊梅區梅獅路二段168號1樓",
        "post": "326",
        "all": "SWEETPOTATO,WiFi,Toilet,Rest,SUNMAI,FreshFruit,Preorder",
        "marker-color": "#01ac50"
      },
      "geometry": {
        "coordinates": [
          121.176877,
          24.906553
        ],
        "type": "Point"
      },
      "id": "012628"
    },
    {
      "type": "Feature",
      "properties": {
        "id": "012629",
        "title": "全家桃園德壽店",
        "address": "桃園市桃園區介壽路412號",
        "post": "330",
        "all": "SWEETPOTATO,WiFi,icecream,Toilet,Rest,oneice,twoice,Preorder",
        "marker-color": "#01ac50"
      },
      "geometry": {
        "coordinates": [
          121.30379736,
          24.9786519
        ],
        "type": "Point"
      },
      "id": "012629"
    },
    {
      "type": "Feature",
      "properties": {
        "id": "012630",
        "title": "全家桃園鼎聖店",
        "address": "桃園市桃園區國鼎一街28號",
        "post": "330",
        "all": "SWEETPOTATO,Smoothie,WiFi,icecream,Rest,oneice,twoice,COFFEEDeliver,Kantoni,Preorder,Rpotato",
        "marker-color": "#01ac50"
      },
      "geometry": {
        "coordinates": [
          121.288011,
          24.987807
        ],
        "type": "Point"
      },
      "id": "012630"
    },
    {
      "type": "Feature",
      "properties": {
        "id": "012633",
        "title": "全家頭份田寮店",
        "address": "苗栗縣頭份市10鄰自強路二段628號",
        "post": "351",
        "all": "SWEETPOTATO,Photo,WiFi,icecream,Parking,Toilet,Rest,oneice,twoice,SUNMAI,Kantoni,TANHOU,Preorder",
        "marker-color": "#01ac50"
      },
      "geometry": {
        "coordinates": [
          120.88222,
          24.682551
        ],
        "type": "Point"
      },
      "id": "012633"
    },
    {
      "type": "Feature",
      "properties": {
        "id": "012655",
        "title": "全家東港興東店",
        "address": "屏東縣東港鎮興東路49之2號",
        "post": "928",
        "all": "SWEETPOTATO,WiFi,icecream,Toilet,Rest,oneice,twoice,COFFEEDeliver,Kantoni,Preorder",
        "marker-color": "#01ac50"
      },
      "geometry": {
        "coordinates": [
          120.465881,
          22.479207
        ],
        "type": "Point"
      },
      "id": "012655"
    },
    {
      "type": "Feature",
      "properties": {
        "id": "012657",
        "title": "全家長城店",
        "address": "台北市松山區敦化北路120巷80號",
        "post": "105",
        "all": "SWEETPOTATO,WiFi,Preorder",
        "marker-color": "#01ac50"
      },
      "geometry": {
        "coordinates": [
          121.546151,
          25.054321
        ],
        "type": "Point"
      },
      "id": "012657"
    },
    {
      "type": "Feature",
      "properties": {
        "id": "012662",
        "title": "全家台中尚美店",
        "address": "台中市西區向上北路192號,194號1樓",
        "post": "403",
        "all": "SWEETPOTATO,WiFi,Rest,COFFEEDeliver,SUNMAI,Preorder",
        "marker-color": "#01ac50"
      },
      "geometry": {
        "coordinates": [
          120.660795,
          24.147985
        ],
        "type": "Point"
      },
      "id": "012662"
    },
    {
      "type": "Feature",
      "properties": {
        "id": "012672",
        "title": "全家霧峰新錦峰店",
        "address": "台中市霧峰區錦州路331號",
        "post": "413",
        "all": "SWEETPOTATO,Photo,icecream,Parking,Toilet,Rest,oneice,COFFEEDeliver,Preorder",
        "marker-color": "#01ac50"
      },
      "geometry": {
        "coordinates": [
          120.707264,
          24.076332
        ],
        "type": "Point"
      },
      "id": "012672"
    },
    {
      "type": "Feature",
      "properties": {
        "id": "012688",
        "title": "全家板橋文興店",
        "address": "新北市板橋區民生路二段230號1樓",
        "post": "220",
        "all": "SWEETPOTATO,WiFi,icecream,Rest,oneice,Preorder",
        "marker-color": "#01ac50"
      },
      "geometry": {
        "coordinates": [
          121.469063,
          25.022157
        ],
        "type": "Point"
      },
      "id": "012688"
    },
    {
      "type": "Feature",
      "properties": {
        "id": "012690",
        "title": "全家鳳山鳳翔店",
        "address": "高雄市鳳山區中山東路234巷53號",
        "post": "830",
        "all": "SWEETPOTATO,Photo,WiFi,icecream,Toilet,Rest,oneice,COFFEEDeliver,Kantoni,TANHOU,Preorder",
        "marker-color": "#01ac50"
      },
      "geometry": {
        "coordinates": [
          120.377196,
          22.625348
        ],
        "type": "Point"
      },
      "id": "012690"
    },
    {
      "type": "Feature",
      "properties": {
        "id": "012693",
        "title": "全家龍潭中興店",
        "address": "桃園市龍潭區中興村中興路65號1樓",
        "post": "325",
        "all": "SWEETPOTATO,Photo,WiFi,icecream,Toilet,Rest,oneice,Preorder",
        "marker-color": "#01ac50"
      },
      "geometry": {
        "coordinates": [
          121.23861,
          24.875431
        ],
        "type": "Point"
      },
      "id": "012693"
    },
    {
      "type": "Feature",
      "properties": {
        "id": "012696",
        "title": "全家台中永興店",
        "address": "台中市北區健行路375號1F",
        "post": "404",
        "all": "SWEETPOTATO,WiFi,icecream,Rest,oneice,twoice,Preorder",
        "marker-color": "#01ac50"
      },
      "geometry": {
        "coordinates": [
          120.682647,
          24.158903
        ],
        "type": "Point"
      },
      "id": "012696"
    },
    {
      "type": "Feature",
      "properties": {
        "id": "012707",
        "title": "全家桃園中山店",
        "address": "桃園市桃園區中山路505號1F",
        "post": "330",
        "all": "SWEETPOTATO,WiFi,Rest,Preorder",
        "marker-color": "#01ac50"
      },
      "geometry": {
        "coordinates": [
          121.297851,
          24.99118
        ],
        "type": "Point"
      },
      "id": "012707"
    },
    {
      "type": "Feature",
      "properties": {
        "id": "012726",
        "title": "全家後壁茄苳店",
        "address": "台南市後壁區嘉明里上茄苳146之33號32號",
        "post": "731",
        "all": "Photo,WiFi,Toilet,Rest,Kantoni,Preorder",
        "marker-color": "#01ac50"
      },
      "geometry": {
        "coordinates": [
          120.377809,
          23.387601
        ],
        "type": "Point"
      },
      "id": "012726"
    },
    {
      "type": "Feature",
      "properties": {
        "id": "012731",
        "title": "全家台南金華店",
        "address": "臺南市南區新孝路72號1樓",
        "post": "702",
        "all": "SWEETPOTATO,WiFi,Rest,COFFEEDeliver,Kantoni,Preorder",
        "marker-color": "#01ac50"
      },
      "geometry": {
        "coordinates": [
          120.189055,
          22.977936
        ],
        "type": "Point"
      },
      "id": "012731"
    },
    {
      "type": "Feature",
      "properties": {
        "id": "012739",
        "title": "全家溪湖再發店",
        "address": "彰化縣溪湖鎮崙子腳路122號",
        "post": "514",
        "all": "SWEETPOTATO,WiFi,Toilet,Rest,COFFEEDeliver,Kantoni,Preorder",
        "marker-color": "#01ac50"
      },
      "geometry": {
        "coordinates": [
          120.4853842,
          23.9484609
        ],
        "type": "Point"
      },
      "id": "012739"
    },
    {
      "type": "Feature",
      "properties": {
        "id": "012740",
        "title": "全家新營和平店",
        "address": "台南市新營區和平路46號",
        "post": "730",
        "all": "SWEETPOTATO,Smoothie,WiFi,Rest,COFFEEDeliver,Preorder",
        "marker-color": "#01ac50"
      },
      "geometry": {
        "coordinates": [
          120.30992,
          23.300295
        ],
        "type": "Point"
      },
      "id": "012740"
    },
    {
      "type": "Feature",
      "properties": {
        "id": "012750",
        "title": "全家豐原新水源店",
        "address": "台中市豐原區水源路17號",
        "post": "420",
        "all": "SWEETPOTATO,WiFi,icecream,Toilet,Rest,oneice,twoice,COFFEEDeliver,Kantoni,Preorder",
        "marker-color": "#01ac50"
      },
      "geometry": {
        "coordinates": [
          120.745045,
          24.255146
        ],
        "type": "Point"
      },
      "id": "012750"
    },
    {
      "type": "Feature",
      "properties": {
        "id": "012770",
        "title": "全家燕巢義醫店",
        "address": "高雄市燕巢區義大路1號地下一樓",
        "post": "824",
        "all": "SWEETPOTATO,WiFi,Rest,COFFEEDeliver,Kantoni,FishPatty",
        "marker-color": "#01ac50"
      },
      "geometry": {
        "coordinates": [
          120.364455,
          22.765458
        ],
        "type": "Point"
      },
      "id": "012770"
    },
    {
      "type": "Feature",
      "properties": {
        "id": "012776",
        "title": "全家蘆竹南山店",
        "address": "桃園市蘆竹區南山路一段75號,77號",
        "post": "338",
        "all": "SWEETPOTATO,Smoothie,WiFi,Toilet,Rest,veg,COFFEEDeliver,TANHOU,FreshFruit,Preorder",
        "marker-color": "#01ac50"
      },
      "geometry": {
        "coordinates": [
          121.292073,
          25.051866
        ],
        "type": "Point"
      },
      "id": "012776"
    },
    {
      "type": "Feature",
      "properties": {
        "id": "012778",
        "title": "全家台南赤崁店",
        "address": "台南市中西區民族路二段257號一樓",
        "post": "700",
        "all": "SWEETPOTATO,WiFi,icecream,oneice,COFFEEDeliver,SUNMAI,Preorder",
        "marker-color": "#01ac50"
      },
      "geometry": {
        "coordinates": [
          120.204244,
          22.996082
        ],
        "type": "Point"
      },
      "id": "012778"
    },
    {
      "type": "Feature",
      "properties": {
        "id": "012779",
        "title": "全家梓官光明店",
        "address": "高雄市梓官區光明路125號127號1樓",
        "post": "826",
        "all": "SWEETPOTATO,WiFi,icecream,Rest,oneice,COFFEEDeliver,Preorder",
        "marker-color": "#01ac50"
      },
      "geometry": {
        "coordinates": [
          120.250233,
          22.732549
        ],
        "type": "Point"
      },
      "id": "012779"
    },
    {
      "type": "Feature",
      "properties": {
        "id": "012784",
        "title": "全家新營國道北店",
        "address": "臺南市後壁區竹新里新厝72號",
        "post": "731",
        "all": "SWEETPOTATO,WiFi,icecream,oneice,twoice,COFFEEDeliver,Kantoni,Preorder,FishPatty,SCoffee",
        "marker-color": "#01ac50"
      },
      "geometry": {
        "coordinates": [
          120.313091,
          23.340068
        ],
        "type": "Point"
      },
      "id": "012784"
    },
    {
      "type": "Feature",
      "properties": {
        "id": "012803",
        "title": "全家沙鹿鎮南店",
        "address": "台中市沙鹿區鎮南路二段268號1樓",
        "post": "433",
        "all": "SWEETPOTATO,Smoothie,WiFi,Toilet,Rest,COFFEEDeliver,Preorder",
        "marker-color": "#01ac50"
      },
      "geometry": {
        "coordinates": [
          120.568844,
          24.224642
        ],
        "type": "Point"
      },
      "id": "012803"
    },
    {
      "type": "Feature",
      "properties": {
        "id": "012823",
        "title": "全家草屯佑民店",
        "address": "南投縣草屯鎮正興街78號",
        "post": "542",
        "all": "SWEETPOTATO,Smoothie,WiFi,Toilet,Rest,Kantoni,Preorder",
        "marker-color": "#01ac50"
      },
      "geometry": {
        "coordinates": [
          120.682274,
          23.960519
        ],
        "type": "Point"
      },
      "id": "012823"
    },
    {
      "type": "Feature",
      "properties": {
        "id": "012835",
        "title": "全家新店龜山店",
        "address": "新北市新店區新烏路三段144號1樓",
        "post": "231",
        "all": "SWEETPOTATO,WiFi,Toilet,Rest,Preorder",
        "marker-color": "#01ac50"
      },
      "geometry": {
        "coordinates": [
          121.551981,
          24.902827
        ],
        "type": "Point"
      },
      "id": "012835"
    },
    {
      "type": "Feature",
      "properties": {
        "id": "012836",
        "title": "全家板橋莒安店",
        "address": "新北市板橋區莒光路131號",
        "post": "220",
        "all": "SWEETPOTATO,WiFi,Rest,Preorder",
        "marker-color": "#01ac50"
      },
      "geometry": {
        "coordinates": [
          121.472921,
          25.024102
        ],
        "type": "Point"
      },
      "id": "012836"
    },
    {
      "type": "Feature",
      "properties": {
        "id": "012845",
        "title": "全家新港中洋店",
        "address": "嘉義縣新港鄉三間厝179號",
        "post": "616",
        "all": "SWEETPOTATO,WiFi,icecream,Toilet,Rest,oneice,twoice,COFFEEDeliver,Kantoni,Preorder",
        "marker-color": "#01ac50"
      },
      "geometry": {
        "coordinates": [
          120.385905,
          23.521663
        ],
        "type": "Point"
      },
      "id": "012845"
    },
    {
      "type": "Feature",
      "properties": {
        "id": "012848",
        "title": "全家新莊北醫店",
        "address": "新北市新莊區思源路127號",
        "post": "242",
        "all": "SWEETPOTATO,WiFi,icecream,Rest,oneice,twoice,COFFEEDeliver,Kantoni,Preorder,FishPatty,Rpotato",
        "marker-color": "#01ac50"
      },
      "geometry": {
        "coordinates": [
          121.459594,
          25.043258
        ],
        "type": "Point"
      },
      "id": "012848"
    },
    {
      "type": "Feature",
      "properties": {
        "id": "012857",
        "title": "全家湖濱店",
        "address": "臺北市內湖區內湖路二段103巷104號",
        "post": "114",
        "all": "SWEETPOTATO,WiFi,Toilet,Rest,veg,TANHOU,Preorder",
        "marker-color": "#01ac50"
      },
      "geometry": {
        "coordinates": [
          121.580862,
          25.083851
        ],
        "type": "Point"
      },
      "id": "012857"
    },
    {
      "type": "Feature",
      "properties": {
        "id": "012863",
        "title": "全家花蓮國興店",
        "address": "花蓮縣花蓮市國聯五路59號",
        "post": "970",
        "all": "SWEETPOTATO,WiFi,Rest,Preorder",
        "marker-color": "#01ac50"
      },
      "geometry": {
        "coordinates": [
          121.60534211,
          23.99068332
        ],
        "type": "Point"
      },
      "id": "012863"
    },
    {
      "type": "Feature",
      "properties": {
        "id": "012870",
        "title": "全家大雅金學府店",
        "address": "台中市大雅區學府路176-3號",
        "post": "428",
        "all": "SWEETPOTATO,WiFi,Toilet,Rest,COFFEEDeliver,Preorder",
        "marker-color": "#01ac50"
      },
      "geometry": {
        "coordinates": [
          120.650297,
          24.220905
        ],
        "type": "Point"
      },
      "id": "012870"
    },
    {
      "type": "Feature",
      "properties": {
        "id": "012877",
        "title": "全家新店大鵬店",
        "address": "新北市新店區中正路698號",
        "post": "231",
        "all": "SWEETPOTATO,WiFi,icecream,veg,oneice,Preorder",
        "marker-color": "#01ac50"
      },
      "geometry": {
        "coordinates": [
          121.534175,
          24.990571
        ],
        "type": "Point"
      },
      "id": "012877"
    },
    {
      "type": "Feature",
      "properties": {
        "id": "012878",
        "title": "全家汐止桂冠店",
        "address": "新北市汐止區水源路二段34號",
        "post": "221",
        "all": "SWEETPOTATO,WiFi,Rest,veg,TANHOU,Preorder",
        "marker-color": "#01ac50"
      },
      "geometry": {
        "coordinates": [
          121.654799,
          25.057134
        ],
        "type": "Point"
      },
      "id": "012878"
    },
    {
      "type": "Feature",
      "properties": {
        "id": "012879",
        "title": "全家汐止力行店",
        "address": "新北市汐止區力行街1號",
        "post": "221",
        "all": "SWEETPOTATO,icecream,Toilet,Rest,oneice,Preorder",
        "marker-color": "#01ac50"
      },
      "geometry": {
        "coordinates": [
          121.617326,
          25.051247
        ],
        "type": "Point"
      },
      "id": "012879"
    },
    {
      "type": "Feature",
      "properties": {
        "id": "012885",
        "title": "全家台中大鼎店",
        "address": "台中市南屯區大墩南路332號,336號一樓",
        "post": "408",
        "all": "SWEETPOTATO,Photo,WiFi,icecream,Toilet,Rest,oneice,twoice,Kantoni,Preorder",
        "marker-color": "#01ac50"
      },
      "geometry": {
        "coordinates": [
          120.650227,
          24.132163
        ],
        "type": "Point"
      },
      "id": "012885"
    },
    {
      "type": "Feature",
      "properties": {
        "id": "012887",
        "title": "全家烏日成功店",
        "address": "台中市烏日區中山路三段242-1號,242-2號",
        "post": "414",
        "all": "SWEETPOTATO,WiFi,Rest,Preorder",
        "marker-color": "#01ac50"
      },
      "geometry": {
        "coordinates": [
          120.607044,
          24.108746
        ],
        "type": "Point"
      },
      "id": "012887"
    },
    {
      "type": "Feature",
      "properties": {
        "id": "012901",
        "title": "全家佳里延平店",
        "address": "台南市佳里區延平路468-2號",
        "post": "722",
        "all": "SWEETPOTATO,Smoothie,WiFi,Rest,veg,COFFEEDeliver,Kantoni,TANHOU,FreshFruit,Preorder",
        "marker-color": "#01ac50"
      },
      "geometry": {
        "coordinates": [
          120.178316,
          23.165241
        ],
        "type": "Point"
      },
      "id": "012901"
    },
    {
      "type": "Feature",
      "properties": {
        "id": "012905",
        "title": "全家高雄四維店",
        "address": "高雄市苓雅區四維四路5號",
        "post": "802",
        "all": "SWEETPOTATO,WiFi,Rest,COFFEEDeliver,Preorder",
        "marker-color": "#01ac50"
      },
      "geometry": {
        "coordinates": [
          120.30214,
          22.616377
        ],
        "type": "Point"
      },
      "id": "012905"
    },
    {
      "type": "Feature",
      "properties": {
        "id": "012914",
        "title": "全家土城峰吉店",
        "address": "新北市土城區延吉街159號1樓",
        "post": "236",
        "all": "SWEETPOTATO,Photo,WiFi,icecream,Toilet,Rest,oneice,twoice,Preorder",
        "marker-color": "#01ac50"
      },
      "geometry": {
        "coordinates": [
          121.470078,
          24.986003
        ],
        "type": "Point"
      },
      "id": "012914"
    },
    {
      "type": "Feature",
      "properties": {
        "id": "012916",
        "title": "全家平鎮廣南店",
        "address": "桃園市平鎮區環南路二段37號1樓",
        "post": "324",
        "all": "SWEETPOTATO,WiFi,Toilet,Rest,Preorder",
        "marker-color": "#01ac50"
      },
      "geometry": {
        "coordinates": [
          121.209649,
          24.944109
        ],
        "type": "Point"
      },
      "id": "012916"
    },
    {
      "type": "Feature",
      "properties": {
        "id": "012918",
        "title": "全家竹南京元店",
        "address": "苗栗縣竹南鎮中華路118號",
        "post": "350",
        "all": "SWEETPOTATO,Kantoni,Preorder",
        "marker-color": "#01ac50"
      },
      "geometry": {
        "coordinates": [
          120.924476,
          24.709175
        ],
        "type": "Point"
      },
      "id": "012918"
    },
    {
      "type": "Feature",
      "properties": {
        "id": "012923",
        "title": "全家台南東成店",
        "address": "台南市東區自由路三段223號",
        "post": "701",
        "all": "SWEETPOTATO,Photo,WiFi,icecream,Toilet,Rest,oneice,twoice,COFFEEDeliver,Preorder",
        "marker-color": "#01ac50"
      },
      "geometry": {
        "coordinates": [
          120.23700247,
          22.98258114
        ],
        "type": "Point"
      },
      "id": "012923"
    },
    {
      "type": "Feature",
      "properties": {
        "id": "012936",
        "title": "全家豐原鎌村店",
        "address": "台中市豐原區鎌村路649號",
        "post": "420",
        "all": "SWEETPOTATO,WiFi,Toilet,Rest,COFFEEDeliver,Kantoni,Preorder",
        "marker-color": "#01ac50"
      },
      "geometry": {
        "coordinates": [
          120.724294,
          24.222003
        ],
        "type": "Point"
      },
      "id": "012936"
    },
    {
      "type": "Feature",
      "properties": {
        "id": "012940",
        "title": "全家中壢環中店",
        "address": "桃園市中壢區環中東路208號,208之1號1樓",
        "post": "320",
        "all": "WiFi,Preorder",
        "marker-color": "#01ac50"
      },
      "geometry": {
        "coordinates": [
          121.256516,
          24.963365
        ],
        "type": "Point"
      },
      "id": "012940"
    },
    {
      "type": "Feature",
      "properties": {
        "id": "012943",
        "title": "全家中視店",
        "address": "台北市南港區興南街39號1樓",
        "post": "115",
        "all": "SWEETPOTATO,WiFi,icecream,Rest,oneice,twoice,COFFEEDeliver,Kantoni,Preorder",
        "marker-color": "#01ac50"
      },
      "geometry": {
        "coordinates": [
          121.601501,
          25.0562
        ],
        "type": "Point"
      },
      "id": "012943"
    },
    {
      "type": "Feature",
      "properties": {
        "id": "012955",
        "title": "全家宜蘭內員山店",
        "address": "宜蘭縣員山鄉溫泉路10號,10之1號",
        "post": "264",
        "all": "SWEETPOTATO,WiFi,Toilet,Rest,Preorder",
        "marker-color": "#01ac50"
      },
      "geometry": {
        "coordinates": [
          121.713305,
          24.749595
        ],
        "type": "Point"
      },
      "id": "012955"
    },
    {
      "type": "Feature",
      "properties": {
        "id": "012956",
        "title": "全家中和莒城店",
        "address": "新北市中和區莒光路181號",
        "post": "235",
        "all": "SWEETPOTATO,WiFi,Rest,Kantoni,Preorder",
        "marker-color": "#01ac50"
      },
      "geometry": {
        "coordinates": [
          121.472726,
          24.99917
        ],
        "type": "Point"
      },
      "id": "012956"
    },
    {
      "type": "Feature",
      "properties": {
        "id": "012957",
        "title": "全家中和福真店",
        "address": "新北市中和區景平路701,701之1號2樓",
        "post": "235",
        "all": "SWEETPOTATO,Photo,WiFi,Rest,veg,SUNMAI,TANHOU,Preorder",
        "marker-color": "#01ac50"
      },
      "geometry": {
        "coordinates": [
          121.49643,
          25.003492
        ],
        "type": "Point"
      },
      "id": "012957"
    },
    {
      "type": "Feature",
      "properties": {
        "id": "012972",
        "title": "全家鹽水朝琴店",
        "address": "台南市鹽水區朝琴路140之2號一樓",
        "post": "737",
        "all": "WiFi,Rest,COFFEEDeliver,Preorder",
        "marker-color": "#01ac50"
      },
      "geometry": {
        "coordinates": [
          120.272054,
          23.323261
        ],
        "type": "Point"
      },
      "id": "012972"
    },
    {
      "type": "Feature",
      "properties": {
        "id": "012976",
        "title": "全家板橋富陽店",
        "address": "新北市板橋區復興街130號一樓",
        "post": "220",
        "all": "SWEETPOTATO,WiFi,Preorder",
        "marker-color": "#01ac50"
      },
      "geometry": {
        "coordinates": [
          121.461114,
          25.0179
        ],
        "type": "Point"
      },
      "id": "012976"
    },
    {
      "type": "Feature",
      "properties": {
        "id": "012980",
        "title": "全家中壢西園店",
        "address": "桃園市中壢區南園二路12號14號一樓",
        "post": "320",
        "all": "SWEETPOTATO,WiFi,icecream,Toilet,Rest,oneice,twoice,Kantoni,Preorder",
        "marker-color": "#01ac50"
      },
      "geometry": {
        "coordinates": [
          121.235715,
          24.97187
        ],
        "type": "Point"
      },
      "id": "012980"
    },
    {
      "type": "Feature",
      "properties": {
        "id": "012984",
        "title": "全家澎湖望安店",
        "address": "澎湖縣望安鄉東安村2-13號",
        "post": "882",
        "all": "SWEETPOTATO,icecream,Toilet,Rest,veg,oneice,FreshFruit,Preorder",
        "marker-color": "#01ac50"
      },
      "geometry": {
        "coordinates": [
          119.507396,
          23.362014
        ],
        "type": "Point"
      },
      "id": "012984"
    },
    {
      "type": "Feature",
      "properties": {
        "id": "012987",
        "title": "全家中壢明光店",
        "address": "桃園市中壢區中華路一段550號8樓",
        "post": "320",
        "all": "SWEETPOTATO,Preorder,Rpotato",
        "marker-color": "#01ac50"
      },
      "geometry": {
        "coordinates": [
          121.251985,
          24.970787
        ],
        "type": "Point"
      },
      "id": "012987"
    },
    {
      "type": "Feature",
      "properties": {
        "id": "012989",
        "title": "全家龍潭武漢店",
        "address": "桃園市龍潭區中興路334號1樓",
        "post": "325",
        "all": "SWEETPOTATO,Photo,WiFi,icecream,Toilet,Rest,oneice,twoice,Preorder",
        "marker-color": "#01ac50"
      },
      "geometry": {
        "coordinates": [
          121.232579,
          24.873782
        ],
        "type": "Point"
      },
      "id": "012989"
    },
    {
      "type": "Feature",
      "properties": {
        "id": "012998",
        "title": "全家汐止亞太店",
        "address": "新北市汐止區新台五路一段96號Ｃ棟",
        "post": "221",
        "all": "SWEETPOTATO,Kantoni,Preorder,FishPatty,SCoffee",
        "marker-color": "#01ac50"
      },
      "geometry": {
        "coordinates": [
          121.648169,
          25.060745
        ],
        "type": "Point"
      },
      "id": "012998"
    },
    {
      "type": "Feature",
      "properties": {
        "id": "013000",
        "title": "全家土城順風店",
        "address": "新北市土城區中央路二段154號",
        "post": "236",
        "all": "SWEETPOTATO,WiFi,icecream,Rest,oneice,twoice,Preorder",
        "marker-color": "#01ac50"
      },
      "geometry": {
        "coordinates": [
          121.441856,
          24.976799
        ],
        "type": "Point"
      },
      "id": "013000"
    },
    {
      "type": "Feature",
      "properties": {
        "id": "013001",
        "title": "全家中和萊陽店",
        "address": "新北市中和區光華街1號3號一樓",
        "post": "235",
        "all": "SWEETPOTATO,WiFi,icecream,Rest,oneice,Preorder",
        "marker-color": "#01ac50"
      },
      "geometry": {
        "coordinates": [
          121.50429,
          25.004495
        ],
        "type": "Point"
      },
      "id": "013001"
    },
    {
      "type": "Feature",
      "properties": {
        "id": "013013",
        "title": "全家草屯太平店",
        "address": "南投縣草屯鎮太平路一段498號",
        "post": "542",
        "all": "SWEETPOTATO,icecream,Toilet,Rest,oneice,twoice,SUNMAI,Kantoni,Preorder",
        "marker-color": "#01ac50"
      },
      "geometry": {
        "coordinates": [
          120.682887,
          23.968316
        ],
        "type": "Point"
      },
      "id": "013013"
    },
    {
      "type": "Feature",
      "properties": {
        "id": "013020",
        "title": "全家新店福民店",
        "address": "新北市新店區中央路145號",
        "post": "231",
        "all": "SWEETPOTATO,WiFi,icecream,Toilet,Rest,oneice,SUNMAI,Preorder",
        "marker-color": "#01ac50"
      },
      "geometry": {
        "coordinates": [
          121.530166,
          24.973447
        ],
        "type": "Point"
      },
      "id": "013020"
    },
    {
      "type": "Feature",
      "properties": {
        "id": "013022",
        "title": "全家三重集美店",
        "address": "新北市三重區集美街149號1樓",
        "post": "241",
        "all": "SWEETPOTATO,WiFi,COFFEEDeliver,Preorder",
        "marker-color": "#01ac50"
      },
      "geometry": {
        "coordinates": [
          121.490589,
          25.053101
        ],
        "type": "Point"
      },
      "id": "013022"
    },
    {
      "type": "Feature",
      "properties": {
        "id": "013024",
        "title": "全家豐華店",
        "address": "台北市松山區民生東路三段113巷6弄1號一樓",
        "post": "105",
        "all": "SWEETPOTATO,WiFi,icecream,Toilet,Rest,oneice,COFFEEDeliver,SUNMAI,Kantoni,Preorder,FishPatty,SCoffee",
        "marker-color": "#01ac50"
      },
      "geometry": {
        "coordinates": [
          121.546023,
          25.058587
        ],
        "type": "Point"
      },
      "id": "013024"
    },
    {
      "type": "Feature",
      "properties": {
        "id": "013030",
        "title": "全家麥寮新泰順店",
        "address": "雲林縣麥寮鄉中興路76-3號",
        "post": "638",
        "all": "SWEETPOTATO,Photo,WiFi,icecream,Toilet,Rest,oneice,COFFEEDeliver,Preorder",
        "marker-color": "#01ac50"
      },
      "geometry": {
        "coordinates": [
          120.252307,
          23.752261
        ],
        "type": "Point"
      },
      "id": "013030"
    },
    {
      "type": "Feature",
      "properties": {
        "id": "013032",
        "title": "全家新德城店",
        "address": "台北市中山區德惠街16-7號",
        "post": "104",
        "all": "SWEETPOTATO,WiFi,icecream,Rest,oneice,COFFEEDeliver,Kantoni,Preorder,SCoffee",
        "marker-color": "#01ac50"
      },
      "geometry": {
        "coordinates": [
          121.524672,
          25.066625
        ],
        "type": "Point"
      },
      "id": "013032"
    },
    {
      "type": "Feature",
      "properties": {
        "id": "013051",
        "title": "全家桃園元富店",
        "address": "桃園市桃園區大業路一段46號,48號1樓",
        "post": "330",
        "all": "SWEETPOTATO,WiFi,icecream,Rest,oneice,twoice,SUNMAI,Preorder",
        "marker-color": "#01ac50"
      },
      "geometry": {
        "coordinates": [
          121.31807,
          25.00438
        ],
        "type": "Point"
      },
      "id": "013051"
    },
    {
      "type": "Feature",
      "properties": {
        "id": "013052",
        "title": "全家新竹科館店",
        "address": "新竹市東區工業東二路1號1樓",
        "post": "300",
        "all": "SWEETPOTATO,Photo,WiFi,Rest,Kantoni,Preorder",
        "marker-color": "#01ac50"
      },
      "geometry": {
        "coordinates": [
          121.005634,
          24.779803
        ],
        "type": "Point"
      },
      "id": "013052"
    },
    {
      "type": "Feature",
      "properties": {
        "id": "013053",
        "title": "全家新竹金竹店",
        "address": "新竹市北區金竹路115號1樓",
        "post": "300",
        "all": "SWEETPOTATO,WiFi,Toilet,Rest,Kantoni,Preorder",
        "marker-color": "#01ac50"
      },
      "geometry": {
        "coordinates": [
          120.97275,
          24.823589
        ],
        "type": "Point"
      },
      "id": "013053"
    },
    {
      "type": "Feature",
      "properties": {
        "id": "013061",
        "title": "全家新店富強店",
        "address": "新北市新店區中興路三段156號",
        "post": "231",
        "all": "SWEETPOTATO,WiFi,Rest,veg,Preorder",
        "marker-color": "#01ac50"
      },
      "geometry": {
        "coordinates": [
          121.544525,
          24.980633
        ],
        "type": "Point"
      },
      "id": "013061"
    },
    {
      "type": "Feature",
      "properties": {
        "id": "013066",
        "title": "全家五股凌雲店",
        "address": "新北市五股區凌雲路一段81號",
        "post": "248",
        "all": "SWEETPOTATO,WiFi,Rest,Preorder",
        "marker-color": "#01ac50"
      },
      "geometry": {
        "coordinates": [
          121.450814,
          25.101243
        ],
        "type": "Point"
      },
      "id": "013066"
    },
    {
      "type": "Feature",
      "properties": {
        "id": "013071",
        "title": "全家高雄覺禮店",
        "address": "高雄市三民區覺民路38號",
        "post": "807",
        "all": "SWEETPOTATO,Photo,WiFi,icecream,Rest,oneice,twoice,COFFEEDeliver,Preorder,Rpotato",
        "marker-color": "#01ac50"
      },
      "geometry": {
        "coordinates": [
          120.34359,
          22.639032
        ],
        "type": "Point"
      },
      "id": "013071"
    },
    {
      "type": "Feature",
      "properties": {
        "id": "013072",
        "title": "全家高雄興楠店",
        "address": "高雄市楠梓區興楠路354號1樓",
        "post": "811",
        "all": "SWEETPOTATO,WiFi,Rest,Preorder",
        "marker-color": "#01ac50"
      },
      "geometry": {
        "coordinates": [
          120.33144,
          22.729209
        ],
        "type": "Point"
      },
      "id": "013072"
    },
    {
      "type": "Feature",
      "properties": {
        "id": "013084",
        "title": "全家竹北新東元店",
        "address": "新竹縣竹北市縣政二路67號1樓",
        "post": "302",
        "all": "SWEETPOTATO,WiFi,icecream,Toilet,Rest,veg,oneice,twoice,Kantoni,TANHOU,Preorder",
        "marker-color": "#01ac50"
      },
      "geometry": {
        "coordinates": [
          121.01422,
          24.82364
        ],
        "type": "Point"
      },
      "id": "013084"
    },
    {
      "type": "Feature",
      "properties": {
        "id": "013093",
        "title": "全家大村寶山店",
        "address": "彰化縣大村鄉山腳路98-20號",
        "post": "515",
        "all": "SWEETPOTATO,Photo,WiFi,Toilet,Rest,COFFEEDeliver,Preorder",
        "marker-color": "#01ac50"
      },
      "geometry": {
        "coordinates": [
          120.583028,
          23.992752
        ],
        "type": "Point"
      },
      "id": "013093"
    },
    {
      "type": "Feature",
      "properties": {
        "id": "013096",
        "title": "全家玉里玉溪店",
        "address": "花蓮縣玉里鎮中華路177號",
        "post": "981",
        "all": "SWEETPOTATO,Photo,WiFi,icecream,Toilet,Rest,oneice,twoice,SUNMAI,Kantoni,Preorder",
        "marker-color": "#01ac50"
      },
      "geometry": {
        "coordinates": [
          121.31523783,
          23.33798533
        ],
        "type": "Point"
      },
      "id": "013096"
    },
    {
      "type": "Feature",
      "properties": {
        "id": "013123",
        "title": "全家大肚高山店",
        "address": "台中市大肚區大德三街38號",
        "post": "432",
        "all": "SWEETPOTATO,WiFi,Toilet,Rest,Preorder",
        "marker-color": "#01ac50"
      },
      "geometry": {
        "coordinates": [
          120.540117,
          24.156538
        ],
        "type": "Point"
      },
      "id": "013123"
    },
    {
      "type": "Feature",
      "properties": {
        "id": "013127",
        "title": "全家鳳山埤頂店",
        "address": "高雄市鳳山區中山東路545號一樓",
        "post": "830",
        "all": "SWEETPOTATO,Smoothie,Photo,WiFi,icecream,Toilet,Rest,oneice,Preorder",
        "marker-color": "#01ac50"
      },
      "geometry": {
        "coordinates": [
          120.381323,
          22.628886
        ],
        "type": "Point"
      },
      "id": "013127"
    },
    {
      "type": "Feature",
      "properties": {
        "id": "013129",
        "title": "全家中和嘉穗店",
        "address": "新北市中和區民利街91號1樓",
        "post": "235",
        "all": "SWEETPOTATO,WiFi,Toilet,Rest,veg,SUNMAI,Kantoni,TANHOU,Preorder",
        "marker-color": "#01ac50"
      },
      "geometry": {
        "coordinates": [
          121.477954,
          24.9979
        ],
        "type": "Point"
      },
      "id": "013129"
    },
    {
      "type": "Feature",
      "properties": {
        "id": "013130",
        "title": "全家高雄孟立店",
        "address": "高雄市左營區孟子路109號一樓",
        "post": "813",
        "all": "WiFi,Rest,COFFEEDeliver,Preorder",
        "marker-color": "#01ac50"
      },
      "geometry": {
        "coordinates": [
          120.313545,
          22.673119
        ],
        "type": "Point"
      },
      "id": "013130"
    },
    {
      "type": "Feature",
      "properties": {
        "id": "013151",
        "title": "全家新店德正店",
        "address": "新北市新店區德正街27巷1號",
        "post": "231",
        "all": "SWEETPOTATO,WiFi,icecream,Toilet,Rest,oneice,twoice,TANHOU,Preorder",
        "marker-color": "#01ac50"
      },
      "geometry": {
        "coordinates": [
          121.544504,
          24.971471
        ],
        "type": "Point"
      },
      "id": "013151"
    },
    {
      "type": "Feature",
      "properties": {
        "id": "013158",
        "title": "全家港福店",
        "address": "台北市南港區福德街373巷63號1樓",
        "post": "115",
        "all": "SWEETPOTATO,Smoothie,Photo,WiFi,icecream,Rest,veg,oneice,TANHOU,Preorder",
        "marker-color": "#01ac50"
      },
      "geometry": {
        "coordinates": [
          121.592009,
          25.03963
        ],
        "type": "Point"
      },
      "id": "013158"
    },
    {
      "type": "Feature",
      "properties": {
        "id": "013159",
        "title": "全家新店玫瑰店",
        "address": "新北市新店區玫瑰路58巷1號1樓",
        "post": "231",
        "all": "SWEETPOTATO,WiFi,icecream,Rest,oneice,Kantoni,TANHOU,Preorder",
        "marker-color": "#01ac50"
      },
      "geometry": {
        "coordinates": [
          121.495433,
          24.946516
        ],
        "type": "Point"
      },
      "id": "013159"
    },
    {
      "type": "Feature",
      "properties": {
        "id": "013172",
        "title": "全家高雄科大店",
        "address": "高雄市燕巢區大學路1號學生活動中心一樓",
        "post": "824",
        "all": "SWEETPOTATO,WiFi,COFFEEDeliver,Kantoni,Preorder",
        "marker-color": "#01ac50"
      },
      "geometry": {
        "coordinates": [
          120.337999,
          22.758464
        ],
        "type": "Point"
      },
      "id": "013172"
    },
    {
      "type": "Feature",
      "properties": {
        "id": "013181",
        "title": "全家新竹竹科店",
        "address": "新竹市東區科學工業園區竹村七路7號1樓",
        "post": "300",
        "all": "SWEETPOTATO,WiFi,icecream,Toilet,Rest,veg,oneice,twoice,Kantoni,TANHOU,Preorder",
        "marker-color": "#01ac50"
      },
      "geometry": {
        "coordinates": [
          121.01063610037,
          24.7787514654528
        ],
        "type": "Point"
      },
      "id": "013181"
    },
    {
      "type": "Feature",
      "properties": {
        "id": "013182",
        "title": "全家沙鹿正德店",
        "address": "台中市沙鹿區屏西路98號",
        "post": "433",
        "all": "SWEETPOTATO,Smoothie,Photo,WiFi,icecream,Toilet,Rest,oneice,twoice,COFFEEDeliver,SUNMAI,Kantoni,TANHOU,Preorder",
        "marker-color": "#01ac50"
      },
      "geometry": {
        "coordinates": [
          120.568404,
          24.207232
        ],
        "type": "Point"
      },
      "id": "013182"
    },
    {
      "type": "Feature",
      "properties": {
        "id": "013183",
        "title": "全家造橋朝陽店",
        "address": "苗栗縣造橋鄉朝陽村朝陽路127號",
        "post": "361",
        "all": "SWEETPOTATO,WiFi,Toilet,Rest,Preorder",
        "marker-color": "#01ac50"
      },
      "geometry": {
        "coordinates": [
          120.867359,
          24.655708
        ],
        "type": "Point"
      },
      "id": "013183"
    },
    {
      "type": "Feature",
      "properties": {
        "id": "013185",
        "title": "全家台中福美店",
        "address": "台中市西屯區西安街91號,西屯區烈美街171號1樓",
        "post": "407",
        "all": "SWEETPOTATO,Smoothie,Photo,WiFi,icecream,oneice,COFFEEDeliver,SUNMAI,Preorder",
        "marker-color": "#01ac50"
      },
      "geometry": {
        "coordinates": [
          120.642422,
          24.181626
        ],
        "type": "Point"
      },
      "id": "013185"
    },
    {
      "type": "Feature",
      "properties": {
        "id": "013208",
        "title": "全家福興福鹿店",
        "address": "彰化縣福興鄉復興路120號",
        "post": "506",
        "all": "SWEETPOTATO,Photo,WiFi,icecream,Toilet,Rest,oneice,twoice,Preorder",
        "marker-color": "#01ac50"
      },
      "geometry": {
        "coordinates": [
          120.4390706066,
          24.0528536494
        ],
        "type": "Point"
      },
      "id": "013208"
    },
    {
      "type": "Feature",
      "properties": {
        "id": "013210",
        "title": "全家竹北嘉興店",
        "address": "新竹縣竹北市勝利七街二段66號1樓",
        "post": "302",
        "all": "SWEETPOTATO,WiFi,icecream,Rest,veg,oneice,twoice,Kantoni,TANHOU,FreshFruit,Preorder",
        "marker-color": "#01ac50"
      },
      "geometry": {
        "coordinates": [
          121.033059,
          24.822571
        ],
        "type": "Point"
      },
      "id": "013210"
    },
    {
      "type": "Feature",
      "properties": {
        "id": "013251",
        "title": "全家新店中欣店",
        "address": "新北市新店區中正路3號",
        "post": "231",
        "all": "SWEETPOTATO,WiFi,Rest,Preorder",
        "marker-color": "#01ac50"
      },
      "geometry": {
        "coordinates": [
          121.545654,
          24.96922
        ],
        "type": "Point"
      },
      "id": "013251"
    },
    {
      "type": "Feature",
      "properties": {
        "id": "013253",
        "title": "全家溪湖大發店",
        "address": "彰化縣溪湖鎮大發路73號",
        "post": "514",
        "all": "SWEETPOTATO,Photo,WiFi,Toilet,Rest,COFFEEDeliver,Kantoni,Preorder",
        "marker-color": "#01ac50"
      },
      "geometry": {
        "coordinates": [
          120.4756733,
          23.9634203
        ],
        "type": "Point"
      },
      "id": "013253"
    },
    {
      "type": "Feature",
      "properties": {
        "id": "013258",
        "title": "全家台中師院店",
        "address": "台中市西區民權路189號",
        "post": "403",
        "all": "SWEETPOTATO,WiFi,Toilet,Rest,Kantoni,Preorder",
        "marker-color": "#01ac50"
      },
      "geometry": {
        "coordinates": [
          120.67073,
          24.145705
        ],
        "type": "Point"
      },
      "id": "013258"
    },
    {
      "type": "Feature",
      "properties": {
        "id": "013260",
        "title": "全家台中敦化店",
        "address": "台中市北屯區敦化路一段573號",
        "post": "406",
        "all": "SWEETPOTATO,Smoothie,WiFi,icecream,Rest,oneice,COFFEEDeliver,Preorder",
        "marker-color": "#01ac50"
      },
      "geometry": {
        "coordinates": [
          120.66622917,
          24.18656021
        ],
        "type": "Point"
      },
      "id": "013260"
    },
    {
      "type": "Feature",
      "properties": {
        "id": "013263",
        "title": "全家大林慈院店",
        "address": "嘉義縣大林鎮民生路2號B1樓",
        "post": "622",
        "all": "SWEETPOTATO,Photo,WiFi,veg,COFFEEDeliver,Kantoni,FreshFruit,Preorder,Rpotato",
        "marker-color": "#01ac50"
      },
      "geometry": {
        "coordinates": [
          120.457473,
          23.596293
        ],
        "type": "Point"
      },
      "id": "013263"
    },
    {
      "type": "Feature",
      "properties": {
        "id": "013268",
        "title": "全家高雄華漾店",
        "address": "高雄市鼓山區華泰路152號",
        "post": "804",
        "all": "SWEETPOTATO,WiFi,icecream,Toilet,Rest,oneice,twoice,COFFEEDeliver,Preorder",
        "marker-color": "#01ac50"
      },
      "geometry": {
        "coordinates": [
          120.292134,
          22.668258
        ],
        "type": "Point"
      },
      "id": "013268"
    },